$GPGGA,233659.103,5142.945,N,00016.351,W,1,12,1.0,0.0,M,0.0,M,,*7C
$GPGSA,A,3,01,02,03,04,05,06,07,08,09,10,11,12,1.0,1.0,1.0*30
$GPRMC,233659.103,A,5142.945,N,00016.351,W,058.3,108.7,291222,000.0,W*60
$GPGGA,233700.103,5142.937,N,00016.328,W,1,12,1.0,0.0,M,0.0,M,,*7A
$GPGSA,A,3,01,02,03,04,05,06,07,08,09,10,11,12,1.0,1.0,1.0*30
$GPRMC,233700.103,A,5142.937,N,00016.328,W,058.3,108.7,291222,000.0,W*66
$GPGGA,233701.103,5142.929,N,00016.305,W,1,12,1.0,0.0,M,0.0,M,,*7B
$GPGSA,A,3,01,02,03,04,05,06,07,08,09,10,11,12,1.0,1.0,1.0*30
$GPRMC,233701.103,A,5142.929,N,00016.305,W,058.3,108.7,291222,000.0,W*67
$GPGGA,233702.103,5142.922,N,00016.282,W,1,12,1.0,0.0,M,0.0,M,,*7D
$GPGSA,A,3,01,02,03,04,05,06,07,08,09,10,11,12,1.0,1.0,1.0*30
$GPRMC,233702.103,A,5142.922,N,00016.282,W,058.3,108.7,291222,000.0,W*61
$GPGGA,233703.103,5142.914,N,00016.259,W,1,12,1.0,0.0,M,0.0,M,,*7F
$GPGSA,A,3,01,02,03,04,05,06,07,08,09,10,11,12,1.0,1.0,1.0*30
$GPRMC,233703.103,A,5142.914,N,00016.259,W,058.3,108.7,291222,000.0,W*63
$GPGGA,233704.103,5142.906,N,00016.237,W,1,12,1.0,0.0,M,0.0,M,,*73
$GPGSA,A,3,01,02,03,04,05,06,07,08,09,10,11,12,1.0,1.0,1.0*30
$GPRMC,233704.103,A,5142.906,N,00016.237,W,058.3,108.7,291222,000.0,W*6F
$GPGGA,233705.103,5142.898,N,00016.214,W,1,12,1.0,0.0,M,0.0,M,,*75
$GPGSA,A,3,01,02,03,04,05,06,07,08,09,10,11,12,1.0,1.0,1.0*30
$GPRMC,233705.103,A,5142.898,N,00016.214,W,058.3,108.7,291222,000.0,W*69
$GPGGA,233706.103,5142.891,N,00016.191,W,1,12,1.0,0.0,M,0.0,M,,*71
$GPGSA,A,3,01,02,03,04,05,06,07,08,09,10,11,12,1.0,1.0,1.0*30
$GPRMC,233706.103,A,5142.891,N,00016.191,W,058.3,108.7,291222,000.0,W*6D
$GPGGA,233707.103,5142.883,N,00016.168,W,1,12,1.0,0.0,M,0.0,M,,*75
$GPGSA,A,3,01,02,03,04,05,06,07,08,09,10,11,12,1.0,1.0,1.0*30
$GPRMC,233707.103,A,5142.883,N,00016.168,W,058.3,108.7,291222,000.0,W*69
$GPGGA,233708.103,5142.875,N,00016.145,W,1,12,1.0,0.0,M,0.0,M,,*7C
$GPGSA,A,3,01,02,03,04,05,06,07,08,09,10,11,12,1.0,1.0,1.0*30
$GPRMC,233708.103,A,5142.875,N,00016.145,W,058.3,108.7,291222,000.0,W*60
$GPGGA,233709.103,5142.867,N,00016.122,W,1,12,1.0,0.0,M,0.0,M,,*7F
$GPGSA,A,3,01,02,03,04,05,06,07,08,09,10,11,12,1.0,1.0,1.0*30
$GPRMC,233709.103,A,5142.867,N,00016.122,W,058.3,108.7,291222,000.0,W*63
$GPGGA,233710.103,5142.860,N,00016.099,W,1,12,1.0,0.0,M,0.0,M,,*71
$GPGSA,A,3,01,02,03,04,05,06,07,08,09,10,11,12,1.0,1.0,1.0*30
$GPRMC,233710.103,A,5142.860,N,00016.099,W,058.3,108.7,291222,000.0,W*6D
$GPGGA,233711.103,5142.852,N,00016.076,W,1,12,1.0,0.0,M,0.0,M,,*70
$GPGSA,A,3,01,02,03,04,05,06,07,08,09,10,11,12,1.0,1.0,1.0*30
$GPRMC,233711.103,A,5142.852,N,00016.076,W,058.3,108.7,291222,000.0,W*6C
$GPGGA,233712.103,5142.844,N,00016.053,W,1,12,1.0,0.0,M,0.0,M,,*73
$GPGSA,A,3,01,02,03,04,05,06,07,08,09,10,11,12,1.0,1.0,1.0*30
$GPRMC,233712.103,A,5142.844,N,00016.053,W,058.3,108.7,291222,000.0,W*6F
$GPGGA,233713.103,5142.836,N,00016.030,W,1,12,1.0,0.0,M,0.0,M,,*72
$GPGSA,A,3,01,02,03,04,05,06,07,08,09,10,11,12,1.0,1.0,1.0*30
$GPRMC,233713.103,A,5142.836,N,00016.030,W,058.3,124.9,291222,000.0,W*6E
$GPGGA,233714.103,5142.824,N,00016.013,W,1,12,1.0,0.0,M,0.0,M,,*77
$GPGSA,A,3,01,02,03,04,05,06,07,08,09,10,11,12,1.0,1.0,1.0*30
$GPRMC,233714.103,A,5142.824,N,00016.013,W,058.3,124.9,291222,000.0,W*6B
$GPGGA,233715.103,5142.812,N,00015.995,W,1,12,1.0,0.0,M,0.0,M,,*77
$GPGSA,A,3,01,02,03,04,05,06,07,08,09,10,11,12,1.0,1.0,1.0*30
$GPRMC,233715.103,A,5142.812,N,00015.995,W,058.3,124.9,291222,000.0,W*6B
$GPGGA,233716.103,5142.800,N,00015.978,W,1,12,1.0,0.0,M,0.0,M,,*74
$GPGSA,A,3,01,02,03,04,05,06,07,08,09,10,11,12,1.0,1.0,1.0*30
$GPRMC,233716.103,A,5142.800,N,00015.978,W,058.3,124.9,291222,000.0,W*68
$GPGGA,233717.103,5142.788,N,00015.960,W,1,12,1.0,0.0,M,0.0,M,,*73
$GPGSA,A,3,01,02,03,04,05,06,07,08,09,10,11,12,1.0,1.0,1.0*30
$GPRMC,233717.103,A,5142.788,N,00015.960,W,058.3,124.9,291222,000.0,W*6F
$GPGGA,233718.103,5142.776,N,00015.943,W,1,12,1.0,0.0,M,0.0,M,,*7C
$GPGSA,A,3,01,02,03,04,05,06,07,08,09,10,11,12,1.0,1.0,1.0*30
$GPRMC,233718.103,A,5142.776,N,00015.943,W,058.3,124.9,291222,000.0,W*60
$GPGGA,233719.103,5142.764,N,00015.926,W,1,12,1.0,0.0,M,0.0,M,,*7D
$GPGSA,A,3,01,02,03,04,05,06,07,08,09,10,11,12,1.0,1.0,1.0*30
$GPRMC,233719.103,A,5142.764,N,00015.926,W,058.3,124.9,291222,000.0,W*61
$GPGGA,233720.103,5142.752,N,00015.908,W,1,12,1.0,0.0,M,0.0,M,,*7E
$GPGSA,A,3,01,02,03,04,05,06,07,08,09,10,11,12,1.0,1.0,1.0*30
$GPRMC,233720.103,A,5142.752,N,00015.908,W,058.3,124.9,291222,000.0,W*62
$GPGGA,233721.103,5142.740,N,00015.891,W,1,12,1.0,0.0,M,0.0,M,,*7D
$GPGSA,A,3,01,02,03,04,05,06,07,08,09,10,11,12,1.0,1.0,1.0*30
$GPRMC,233721.103,A,5142.740,N,00015.891,W,058.3,124.9,291222,000.0,W*61
$GPGGA,233722.103,5142.728,N,00015.874,W,1,12,1.0,0.0,M,0.0,M,,*7B
$GPGSA,A,3,01,02,03,04,05,06,07,08,09,10,11,12,1.0,1.0,1.0*30
$GPRMC,233722.103,A,5142.728,N,00015.874,W,058.3,124.9,291222,000.0,W*67
$GPGGA,233723.103,5142.716,N,00015.856,W,1,12,1.0,0.0,M,0.0,M,,*77
$GPGSA,A,3,01,02,03,04,05,06,07,08,09,10,11,12,1.0,1.0,1.0*30
$GPRMC,233723.103,A,5142.716,N,00015.856,W,058.3,124.9,291222,000.0,W*6B
$GPGGA,233724.103,5142.703,N,00015.839,W,1,12,1.0,0.0,M,0.0,M,,*7D
$GPGSA,A,3,01,02,03,04,05,06,07,08,09,10,11,12,1.0,1.0,1.0*30
$GPRMC,233724.103,A,5142.703,N,00015.839,W,058.3,124.9,291222,000.0,W*61
$GPGGA,233725.103,5142.691,N,00015.821,W,1,12,1.0,0.0,M,0.0,M,,*7F
$GPGSA,A,3,01,02,03,04,05,06,07,08,09,10,11,12,1.0,1.0,1.0*30
$GPRMC,233725.103,A,5142.691,N,00015.821,W,058.3,124.9,291222,000.0,W*63
$GPGGA,233726.103,5142.679,N,00015.804,W,1,12,1.0,0.0,M,0.0,M,,*7D
$GPGSA,A,3,01,02,03,04,05,06,07,08,09,10,11,12,1.0,1.0,1.0*30
$GPRMC,233726.103,A,5142.679,N,00015.804,W,058.3,124.9,291222,000.0,W*61
$GPGGA,233727.103,5142.667,N,00015.787,W,1,12,1.0,0.0,M,0.0,M,,*77
$GPGSA,A,3,01,02,03,04,05,06,07,08,09,10,11,12,1.0,1.0,1.0*30
$GPRMC,233727.103,A,5142.667,N,00015.787,W,058.3,124.9,291222,000.0,W*6B
$GPGGA,233728.103,5142.655,N,00015.769,W,1,12,1.0,0.0,M,0.0,M,,*79
$GPGSA,A,3,01,02,03,04,05,06,07,08,09,10,11,12,1.0,1.0,1.0*30
$GPRMC,233728.103,A,5142.655,N,00015.769,W,058.3,120.4,291222,000.0,W*6C
$GPGGA,233729.103,5142.644,N,00015.750,W,1,12,1.0,0.0,M,0.0,M,,*72
$GPGSA,A,3,01,02,03,04,05,06,07,08,09,10,11,12,1.0,1.0,1.0*30
$GPRMC,233729.103,A,5142.644,N,00015.750,W,058.3,120.4,291222,000.0,W*67
$GPGGA,233730.103,5142.633,N,00015.731,W,1,12,1.0,0.0,M,0.0,M,,*7D
$GPGSA,A,3,01,02,03,04,05,06,07,08,09,10,11,12,1.0,1.0,1.0*30
$GPRMC,233730.103,A,5142.633,N,00015.731,W,058.3,120.4,291222,000.0,W*68
$GPGGA,233731.103,5142.622,N,00015.712,W,1,12,1.0,0.0,M,0.0,M,,*7D
$GPGSA,A,3,01,02,03,04,05,06,07,08,09,10,11,12,1.0,1.0,1.0*30
$GPRMC,233731.103,A,5142.622,N,00015.712,W,058.3,120.4,291222,000.0,W*68
$GPGGA,233732.103,5142.611,N,00015.693,W,1,12,1.0,0.0,M,0.0,M,,*76
$GPGSA,A,3,01,02,03,04,05,06,07,08,09,10,11,12,1.0,1.0,1.0*30
$GPRMC,233732.103,A,5142.611,N,00015.693,W,058.3,120.4,291222,000.0,W*63
$GPGGA,233733.103,5142.600,N,00015.674,W,1,12,1.0,0.0,M,0.0,M,,*7E
$GPGSA,A,3,01,02,03,04,05,06,07,08,09,10,11,12,1.0,1.0,1.0*30
$GPRMC,233733.103,A,5142.600,N,00015.674,W,058.3,120.4,291222,000.0,W*6B
$GPGGA,233734.103,5142.588,N,00015.655,W,1,12,1.0,0.0,M,0.0,M,,*79
$GPGSA,A,3,01,02,03,04,05,06,07,08,09,10,11,12,1.0,1.0,1.0*30
$GPRMC,233734.103,A,5142.588,N,00015.655,W,058.3,120.4,291222,000.0,W*6C
$GPGGA,233735.103,5142.577,N,00015.636,W,1,12,1.0,0.0,M,0.0,M,,*7D
$GPGSA,A,3,01,02,03,04,05,06,07,08,09,10,11,12,1.0,1.0,1.0*30
$GPRMC,233735.103,A,5142.577,N,00015.636,W,058.3,120.4,291222,000.0,W*68
$GPGGA,233736.103,5142.566,N,00015.617,W,1,12,1.0,0.0,M,0.0,M,,*7D
$GPGSA,A,3,01,02,03,04,05,06,07,08,09,10,11,12,1.0,1.0,1.0*30
$GPRMC,233736.103,A,5142.566,N,00015.617,W,058.3,120.4,291222,000.0,W*68
$GPGGA,233737.103,5142.555,N,00015.598,W,1,12,1.0,0.0,M,0.0,M,,*78
$GPGSA,A,3,01,02,03,04,05,06,07,08,09,10,11,12,1.0,1.0,1.0*30
$GPRMC,233737.103,A,5142.555,N,00015.598,W,058.3,120.4,291222,000.0,W*6D
$GPGGA,233738.103,5142.544,N,00015.579,W,1,12,1.0,0.0,M,0.0,M,,*78
$GPGSA,A,3,01,02,03,04,05,06,07,08,09,10,11,12,1.0,1.0,1.0*30
$GPRMC,233738.103,A,5142.544,N,00015.579,W,058.3,120.4,291222,000.0,W*6D
$GPGGA,233739.103,5142.533,N,00015.560,W,1,12,1.0,0.0,M,0.0,M,,*71
$GPGSA,A,3,01,02,03,04,05,06,07,08,09,10,11,12,1.0,1.0,1.0*30
$GPRMC,233739.103,A,5142.533,N,00015.560,W,058.3,120.4,291222,000.0,W*64
$GPGGA,233740.103,5142.522,N,00015.541,W,1,12,1.0,0.0,M,0.0,M,,*7C
$GPGSA,A,3,01,02,03,04,05,06,07,08,09,10,11,12,1.0,1.0,1.0*30
$GPRMC,233740.103,A,5142.522,N,00015.541,W,058.3,120.4,291222,000.0,W*69
$GPGGA,233741.103,5142.511,N,00015.522,W,1,12,1.0,0.0,M,0.0,M,,*78
$GPGSA,A,3,01,02,03,04,05,06,07,08,09,10,11,12,1.0,1.0,1.0*30
$GPRMC,233741.103,A,5142.511,N,00015.522,W,058.3,120.4,291222,000.0,W*6D
$GPGGA,233742.103,5142.500,N,00015.503,W,1,12,1.0,0.0,M,0.0,M,,*78
$GPGSA,A,3,01,02,03,04,05,06,07,08,09,10,11,12,1.0,1.0,1.0*30
$GPRMC,233742.103,A,5142.500,N,00015.503,W,058.3,116.5,291222,000.0,W*69
$GPGGA,233743.103,5142.490,N,00015.483,W,1,12,1.0,0.0,M,0.0,M,,*78
$GPGSA,A,3,01,02,03,04,05,06,07,08,09,10,11,12,1.0,1.0,1.0*30
$GPRMC,233743.103,A,5142.490,N,00015.483,W,058.3,116.5,291222,000.0,W*69
$GPGGA,233744.103,5142.479,N,00015.462,W,1,12,1.0,0.0,M,0.0,M,,*77
$GPGSA,A,3,01,02,03,04,05,06,07,08,09,10,11,12,1.0,1.0,1.0*30
$GPRMC,233744.103,A,5142.479,N,00015.462,W,058.3,116.5,291222,000.0,W*66
$GPGGA,233745.103,5142.469,N,00015.442,W,1,12,1.0,0.0,M,0.0,M,,*75
$GPGSA,A,3,01,02,03,04,05,06,07,08,09,10,11,12,1.0,1.0,1.0*30
$GPRMC,233745.103,A,5142.469,N,00015.442,W,058.3,116.5,291222,000.0,W*64
$GPGGA,233746.103,5142.459,N,00015.422,W,1,12,1.0,0.0,M,0.0,M,,*73
$GPGSA,A,3,01,02,03,04,05,06,07,08,09,10,11,12,1.0,1.0,1.0*30
$GPRMC,233746.103,A,5142.459,N,00015.422,W,058.3,116.5,291222,000.0,W*62
$GPGGA,233747.103,5142.449,N,00015.401,W,1,12,1.0,0.0,M,0.0,M,,*72
$GPGSA,A,3,01,02,03,04,05,06,07,08,09,10,11,12,1.0,1.0,1.0*30
$GPRMC,233747.103,A,5142.449,N,00015.401,W,058.3,116.5,291222,000.0,W*63
$GPGGA,233748.103,5142.439,N,00015.381,W,1,12,1.0,0.0,M,0.0,M,,*75
$GPGSA,A,3,01,02,03,04,05,06,07,08,09,10,11,12,1.0,1.0,1.0*30
$GPRMC,233748.103,A,5142.439,N,00015.381,W,058.3,116.5,291222,000.0,W*64
$GPGGA,233749.103,5142.429,N,00015.360,W,1,12,1.0,0.0,M,0.0,M,,*7A
$GPGSA,A,3,01,02,03,04,05,06,07,08,09,10,11,12,1.0,1.0,1.0*30
$GPRMC,233749.103,A,5142.429,N,00015.360,W,058.3,116.5,291222,000.0,W*6B
$GPGGA,233750.103,5142.419,N,00015.340,W,1,12,1.0,0.0,M,0.0,M,,*73
$GPGSA,A,3,01,02,03,04,05,06,07,08,09,10,11,12,1.0,1.0,1.0*30
$GPRMC,233750.103,A,5142.419,N,00015.340,W,058.3,116.5,291222,000.0,W*62
$GPGGA,233751.103,5142.409,N,00015.320,W,1,12,1.0,0.0,M,0.0,M,,*75
$GPGSA,A,3,01,02,03,04,05,06,07,08,09,10,11,12,1.0,1.0,1.0*30
$GPRMC,233751.103,A,5142.409,N,00015.320,W,058.3,116.5,291222,000.0,W*64
$GPGGA,233752.103,5142.398,N,00015.299,W,1,12,1.0,0.0,M,0.0,M,,*7A
$GPGSA,A,3,01,02,03,04,05,06,07,08,09,10,11,12,1.0,1.0,1.0*30
$GPRMC,233752.103,A,5142.398,N,00015.299,W,058.3,116.5,291222,000.0,W*6B
$GPGGA,233753.103,5142.388,N,00015.279,W,1,12,1.0,0.0,M,0.0,M,,*74
$GPGSA,A,3,01,02,03,04,05,06,07,08,09,10,11,12,1.0,1.0,1.0*30
$GPRMC,233753.103,A,5142.388,N,00015.279,W,058.3,116.5,291222,000.0,W*65
$GPGGA,233754.103,5142.378,N,00015.259,W,1,12,1.0,0.0,M,0.0,M,,*7E
$GPGSA,A,3,01,02,03,04,05,06,07,08,09,10,11,12,1.0,1.0,1.0*30
$GPRMC,233754.103,A,5142.378,N,00015.259,W,058.3,116.5,291222,000.0,W*6F
$GPGGA,233755.103,5142.368,N,00015.238,W,1,12,1.0,0.0,M,0.0,M,,*79
$GPGSA,A,3,01,02,03,04,05,06,07,08,09,10,11,12,1.0,1.0,1.0*30
$GPRMC,233755.103,A,5142.368,N,00015.238,W,058.3,116.5,291222,000.0,W*68
$GPGGA,233756.103,5142.358,N,00015.218,W,1,12,1.0,0.0,M,0.0,M,,*7B
$GPGSA,A,3,01,02,03,04,05,06,07,08,09,10,11,12,1.0,1.0,1.0*30
$GPRMC,233756.103,A,5142.358,N,00015.218,W,058.3,116.5,291222,000.0,W*6A
$GPGGA,233757.103,5142.348,N,00015.197,W,1,12,1.0,0.0,M,0.0,M,,*7F
$GPGSA,A,3,01,02,03,04,05,06,07,08,09,10,11,12,1.0,1.0,1.0*30
$GPRMC,233757.103,A,5142.348,N,00015.197,W,058.3,116.5,291222,000.0,W*6E
$GPGGA,233758.103,5142.338,N,00015.177,W,1,12,1.0,0.0,M,0.0,M,,*79
$GPGSA,A,3,01,02,03,04,05,06,07,08,09,10,11,12,1.0,1.0,1.0*30
$GPRMC,233758.103,A,5142.338,N,00015.177,W,058.3,116.5,291222,000.0,W*68
$GPGGA,233759.103,5142.328,N,00015.157,W,1,12,1.0,0.0,M,0.0,M,,*7B
$GPGSA,A,3,01,02,03,04,05,06,07,08,09,10,11,12,1.0,1.0,1.0*30
$GPRMC,233759.103,A,5142.328,N,00015.157,W,058.3,116.5,291222,000.0,W*6A
$GPGGA,233800.103,5142.317,N,00015.136,W,1,12,1.0,0.0,M,0.0,M,,*73
$GPGSA,A,3,01,02,03,04,05,06,07,08,09,10,11,12,1.0,1.0,1.0*30
$GPRMC,233800.103,A,5142.317,N,00015.136,W,058.3,116.5,291222,000.0,W*62
$GPGGA,233801.103,5142.307,N,00015.116,W,1,12,1.0,0.0,M,0.0,M,,*71
$GPGSA,A,3,01,02,03,04,05,06,07,08,09,10,11,12,1.0,1.0,1.0*30
$GPRMC,233801.103,A,5142.307,N,00015.116,W,058.3,116.5,291222,000.0,W*60
$GPGGA,233802.103,5142.297,N,00015.096,W,1,12,1.0,0.0,M,0.0,M,,*73
$GPGSA,A,3,01,02,03,04,05,06,07,08,09,10,11,12,1.0,1.0,1.0*30
$GPRMC,233802.103,A,5142.297,N,00015.096,W,058.3,116.5,291222,000.0,W*62
$GPGGA,233803.103,5142.287,N,00015.075,W,1,12,1.0,0.0,M,0.0,M,,*7E
$GPGSA,A,3,01,02,03,04,05,06,07,08,09,10,11,12,1.0,1.0,1.0*30
$GPRMC,233803.103,A,5142.287,N,00015.075,W,058.3,116.5,291222,000.0,W*6F
$GPGGA,233804.103,5142.277,N,00015.055,W,1,12,1.0,0.0,M,0.0,M,,*74
$GPGSA,A,3,01,02,03,04,05,06,07,08,09,10,11,12,1.0,1.0,1.0*30
$GPRMC,233804.103,A,5142.277,N,00015.055,W,058.3,116.5,291222,000.0,W*65
$GPGGA,233805.103,5142.267,N,00015.034,W,1,12,1.0,0.0,M,0.0,M,,*73
$GPGSA,A,3,01,02,03,04,05,06,07,08,09,10,11,12,1.0,1.0,1.0*30
$GPRMC,233805.103,A,5142.267,N,00015.034,W,058.3,116.5,291222,000.0,W*62
$GPGGA,233806.103,5142.257,N,00015.014,W,1,12,1.0,0.0,M,0.0,M,,*71
$GPGSA,A,3,01,02,03,04,05,06,07,08,09,10,11,12,1.0,1.0,1.0*30
$GPRMC,233806.103,A,5142.257,N,00015.014,W,058.3,116.5,291222,000.0,W*60
$GPGGA,233807.103,5142.247,N,00014.994,W,1,12,1.0,0.0,M,0.0,M,,*71
$GPGSA,A,3,01,02,03,04,05,06,07,08,09,10,11,12,1.0,1.0,1.0*30
$GPRMC,233807.103,A,5142.247,N,00014.994,W,058.3,116.5,291222,000.0,W*60
$GPGGA,233808.103,5142.236,N,00014.973,W,1,12,1.0,0.0,M,0.0,M,,*71
$GPGSA,A,3,01,02,03,04,05,06,07,08,09,10,11,12,1.0,1.0,1.0*30
$GPRMC,233808.103,A,5142.236,N,00014.973,W,058.3,116.5,291222,000.0,W*60
$GPGGA,233809.103,5142.226,N,00014.953,W,1,12,1.0,0.0,M,0.0,M,,*73
$GPGSA,A,3,01,02,03,04,05,06,07,08,09,10,11,12,1.0,1.0,1.0*30
$GPRMC,233809.103,A,5142.226,N,00014.953,W,058.3,116.5,291222,000.0,W*62
$GPGGA,233810.103,5142.216,N,00014.933,W,1,12,1.0,0.0,M,0.0,M,,*7E
$GPGSA,A,3,01,02,03,04,05,06,07,08,09,10,11,12,1.0,1.0,1.0*30
$GPRMC,233810.103,A,5142.216,N,00014.933,W,058.3,116.5,291222,000.0,W*6F
$GPGGA,233811.103,5142.206,N,00014.912,W,1,12,1.0,0.0,M,0.0,M,,*7D
$GPGSA,A,3,01,02,03,04,05,06,07,08,09,10,11,12,1.0,1.0,1.0*30
$GPRMC,233811.103,A,5142.206,N,00014.912,W,058.3,116.5,291222,000.0,W*6C
$GPGGA,233812.103,5142.196,N,00014.892,W,1,12,1.0,0.0,M,0.0,M,,*7D
$GPGSA,A,3,01,02,03,04,05,06,07,08,09,10,11,12,1.0,1.0,1.0*30
$GPRMC,233812.103,A,5142.196,N,00014.892,W,058.3,116.5,291222,000.0,W*6C
$GPGGA,233813.103,5142.186,N,00014.871,W,1,12,1.0,0.0,M,0.0,M,,*70
$GPGSA,A,3,01,02,03,04,05,06,07,08,09,10,11,12,1.0,1.0,1.0*30
$GPRMC,233813.103,A,5142.186,N,00014.871,W,058.3,116.5,291222,000.0,W*61
$GPGGA,233814.103,5142.176,N,00014.851,W,1,12,1.0,0.0,M,0.0,M,,*7A
$GPGSA,A,3,01,02,03,04,05,06,07,08,09,10,11,12,1.0,1.0,1.0*30
$GPRMC,233814.103,A,5142.176,N,00014.851,W,058.3,116.5,291222,000.0,W*6B
$GPGGA,233815.103,5142.165,N,00014.831,W,1,12,1.0,0.0,M,0.0,M,,*7F
$GPGSA,A,3,01,02,03,04,05,06,07,08,09,10,11,12,1.0,1.0,1.0*30
$GPRMC,233815.103,A,5142.165,N,00014.831,W,058.3,116.5,291222,000.0,W*6E
$GPGGA,233816.103,5142.155,N,00014.810,W,1,12,1.0,0.0,M,0.0,M,,*7C
$GPGSA,A,3,01,02,03,04,05,06,07,08,09,10,11,12,1.0,1.0,1.0*30
$GPRMC,233816.103,A,5142.155,N,00014.810,W,058.3,116.5,291222,000.0,W*6D
$GPGGA,233817.103,5142.145,N,00014.790,W,1,12,1.0,0.0,M,0.0,M,,*7B
$GPGSA,A,3,01,02,03,04,05,06,07,08,09,10,11,12,1.0,1.0,1.0*30
$GPRMC,233817.103,A,5142.145,N,00014.790,W,058.3,116.5,291222,000.0,W*6A
$GPGGA,233818.103,5142.135,N,00014.769,W,1,12,1.0,0.0,M,0.0,M,,*75
$GPGSA,A,3,01,02,03,04,05,06,07,08,09,10,11,12,1.0,1.0,1.0*30
$GPRMC,233818.103,A,5142.135,N,00014.769,W,058.3,116.5,291222,000.0,W*64
$GPGGA,233819.103,5142.125,N,00014.749,W,1,12,1.0,0.0,M,0.0,M,,*77
$GPGSA,A,3,01,02,03,04,05,06,07,08,09,10,11,12,1.0,1.0,1.0*30
$GPRMC,233819.103,A,5142.125,N,00014.749,W,058.3,116.5,291222,000.0,W*66
$GPGGA,233820.103,5142.115,N,00014.729,W,1,12,1.0,0.0,M,0.0,M,,*78
$GPGSA,A,3,01,02,03,04,05,06,07,08,09,10,11,12,1.0,1.0,1.0*30
$GPRMC,233820.103,A,5142.115,N,00014.729,W,058.3,116.5,291222,000.0,W*69
$GPGGA,233821.103,5142.105,N,00014.708,W,1,12,1.0,0.0,M,0.0,M,,*7B
$GPGSA,A,3,01,02,03,04,05,06,07,08,09,10,11,12,1.0,1.0,1.0*30
$GPRMC,233821.103,A,5142.105,N,00014.708,W,058.3,116.5,291222,000.0,W*6A
$GPGGA,233822.103,5142.095,N,00014.688,W,1,12,1.0,0.0,M,0.0,M,,*79
$GPGSA,A,3,01,02,03,04,05,06,07,08,09,10,11,12,1.0,1.0,1.0*30
$GPRMC,233822.103,A,5142.095,N,00014.688,W,058.3,116.5,291222,000.0,W*68
$GPGGA,233823.103,5142.084,N,00014.668,W,1,12,1.0,0.0,M,0.0,M,,*76
$GPGSA,A,3,01,02,03,04,05,06,07,08,09,10,11,12,1.0,1.0,1.0*30
$GPRMC,233823.103,A,5142.084,N,00014.668,W,058.3,116.5,291222,000.0,W*67
$GPGGA,233824.103,5142.074,N,00014.647,W,1,12,1.0,0.0,M,0.0,M,,*73
$GPGSA,A,3,01,02,03,04,05,06,07,08,09,10,11,12,1.0,1.0,1.0*30
$GPRMC,233824.103,A,5142.074,N,00014.647,W,058.3,116.5,291222,000.0,W*62
$GPGGA,233825.103,5142.064,N,00014.627,W,1,12,1.0,0.0,M,0.0,M,,*75
$GPGSA,A,3,01,02,03,04,05,06,07,08,09,10,11,12,1.0,1.0,1.0*30
$GPRMC,233825.103,A,5142.064,N,00014.627,W,058.3,137.6,291222,000.0,W*64
$GPGGA,233826.103,5142.050,N,00014.614,W,1,12,1.0,0.0,M,0.0,M,,*71
$GPGSA,A,3,01,02,03,04,05,06,07,08,09,10,11,12,1.0,1.0,1.0*30
$GPRMC,233826.103,A,5142.050,N,00014.614,W,058.3,137.6,291222,000.0,W*60
$GPGGA,233827.103,5142.036,N,00014.601,W,1,12,1.0,0.0,M,0.0,M,,*74
$GPGSA,A,3,01,02,03,04,05,06,07,08,09,10,11,12,1.0,1.0,1.0*30
$GPRMC,233827.103,A,5142.036,N,00014.601,W,058.3,137.6,291222,000.0,W*65
$GPGGA,233828.103,5142.022,N,00014.588,W,1,12,1.0,0.0,M,0.0,M,,*7C
$GPGSA,A,3,01,02,03,04,05,06,07,08,09,10,11,12,1.0,1.0,1.0*30
$GPRMC,233828.103,A,5142.022,N,00014.588,W,058.3,137.6,291222,000.0,W*6D
$GPGGA,233829.103,5142.008,N,00014.575,W,1,12,1.0,0.0,M,0.0,M,,*77
$GPGSA,A,3,01,02,03,04,05,06,07,08,09,10,11,12,1.0,1.0,1.0*30
$GPRMC,233829.103,A,5142.008,N,00014.575,W,058.3,137.6,291222,000.0,W*66
$GPGGA,233830.103,5141.994,N,00014.562,W,1,12,1.0,0.0,M,0.0,M,,*76
$GPGSA,A,3,01,02,03,04,05,06,07,08,09,10,11,12,1.0,1.0,1.0*30
$GPRMC,233830.103,A,5141.994,N,00014.562,W,058.3,137.6,291222,000.0,W*67
$GPGGA,233831.103,5141.980,N,00014.549,W,1,12,1.0,0.0,M,0.0,M,,*7B
$GPGSA,A,3,01,02,03,04,05,06,07,08,09,10,11,12,1.0,1.0,1.0*30
$GPRMC,233831.103,A,5141.980,N,00014.549,W,058.3,137.6,291222,000.0,W*6A
$GPGGA,233832.103,5141.966,N,00014.536,W,1,12,1.0,0.0,M,0.0,M,,*78
$GPGSA,A,3,01,02,03,04,05,06,07,08,09,10,11,12,1.0,1.0,1.0*30
$GPRMC,233832.103,A,5141.966,N,00014.536,W,058.3,137.6,291222,000.0,W*69
$GPGGA,233833.103,5141.952,N,00014.524,W,1,12,1.0,0.0,M,0.0,M,,*7D
$GPGSA,A,3,01,02,03,04,05,06,07,08,09,10,11,12,1.0,1.0,1.0*30
$GPRMC,233833.103,A,5141.952,N,00014.524,W,058.3,137.6,291222,000.0,W*6C
$GPGGA,233834.103,5141.938,N,00014.511,W,1,12,1.0,0.0,M,0.0,M,,*70
$GPGSA,A,3,01,02,03,04,05,06,07,08,09,10,11,12,1.0,1.0,1.0*30
$GPRMC,233834.103,A,5141.938,N,00014.511,W,058.3,137.6,291222,000.0,W*61
$GPGGA,233835.103,5141.924,N,00014.498,W,1,12,1.0,0.0,M,0.0,M,,*7C
$GPGSA,A,3,01,02,03,04,05,06,07,08,09,10,11,12,1.0,1.0,1.0*30
$GPRMC,233835.103,A,5141.924,N,00014.498,W,058.3,137.6,291222,000.0,W*6D
$GPGGA,233836.103,5141.909,N,00014.485,W,1,12,1.0,0.0,M,0.0,M,,*7C
$GPGSA,A,3,01,02,03,04,05,06,07,08,09,10,11,12,1.0,1.0,1.0*30
$GPRMC,233836.103,A,5141.909,N,00014.485,W,058.3,137.6,291222,000.0,W*6D
$GPGGA,233837.103,5141.895,N,00014.472,W,1,12,1.0,0.0,M,0.0,M,,*71
$GPGSA,A,3,01,02,03,04,05,06,07,08,09,10,11,12,1.0,1.0,1.0*30
$GPRMC,233837.103,A,5141.895,N,00014.472,W,058.3,137.6,291222,000.0,W*60
$GPGGA,233838.103,5141.881,N,00014.459,W,1,12,1.0,0.0,M,0.0,M,,*72
$GPGSA,A,3,01,02,03,04,05,06,07,08,09,10,11,12,1.0,1.0,1.0*30
$GPRMC,233838.103,A,5141.881,N,00014.459,W,058.3,137.6,291222,000.0,W*63
$GPGGA,233839.103,5141.867,N,00014.446,W,1,12,1.0,0.0,M,0.0,M,,*75
$GPGSA,A,3,01,02,03,04,05,06,07,08,09,10,11,12,1.0,1.0,1.0*30
$GPRMC,233839.103,A,5141.867,N,00014.446,W,058.3,137.6,291222,000.0,W*64
$GPGGA,233840.103,5141.853,N,00014.433,W,1,12,1.0,0.0,M,0.0,M,,*7E
$GPGSA,A,3,01,02,03,04,05,06,07,08,09,10,11,12,1.0,1.0,1.0*30
$GPRMC,233840.103,A,5141.853,N,00014.433,W,058.3,137.6,291222,000.0,W*6F
$GPGGA,233841.103,5141.839,N,00014.420,W,1,12,1.0,0.0,M,0.0,M,,*71
$GPGSA,A,3,01,02,03,04,05,06,07,08,09,10,11,12,1.0,1.0,1.0*30
$GPRMC,233841.103,A,5141.839,N,00014.420,W,058.3,137.6,291222,000.0,W*60
$GPGGA,233842.103,5141.825,N,00014.407,W,1,12,1.0,0.0,M,0.0,M,,*7A
$GPGSA,A,3,01,02,03,04,05,06,07,08,09,10,11,12,1.0,1.0,1.0*30
$GPRMC,233842.103,A,5141.825,N,00014.407,W,058.3,137.6,291222,000.0,W*6B
$GPGGA,233843.103,5141.811,N,00014.394,W,1,12,1.0,0.0,M,0.0,M,,*71
$GPGSA,A,3,01,02,03,04,05,06,07,08,09,10,11,12,1.0,1.0,1.0*30
$GPRMC,233843.103,A,5141.811,N,00014.394,W,058.3,137.6,291222,000.0,W*60
$GPGGA,233844.103,5141.797,N,00014.382,W,1,12,1.0,0.0,M,0.0,M,,*70
$GPGSA,A,3,01,02,03,04,05,06,07,08,09,10,11,12,1.0,1.0,1.0*30
$GPRMC,233844.103,A,5141.797,N,00014.382,W,058.3,137.6,291222,000.0,W*61
$GPGGA,233845.103,5141.783,N,00014.369,W,1,12,1.0,0.0,M,0.0,M,,*71
$GPGSA,A,3,01,02,03,04,05,06,07,08,09,10,11,12,1.0,1.0,1.0*30
$GPRMC,233845.103,A,5141.783,N,00014.369,W,058.3,137.6,291222,000.0,W*60
$GPGGA,233846.103,5141.769,N,00014.356,W,1,12,1.0,0.0,M,0.0,M,,*7A
$GPGSA,A,3,01,02,03,04,05,06,07,08,09,10,11,12,1.0,1.0,1.0*30
$GPRMC,233846.103,A,5141.769,N,00014.356,W,058.3,137.6,291222,000.0,W*6B
$GPGGA,233847.103,5141.755,N,00014.343,W,1,12,1.0,0.0,M,0.0,M,,*70
$GPGSA,A,3,01,02,03,04,05,06,07,08,09,10,11,12,1.0,1.0,1.0*30
$GPRMC,233847.103,A,5141.755,N,00014.343,W,058.3,137.6,291222,000.0,W*61
$GPGGA,233848.103,5141.741,N,00014.330,W,1,12,1.0,0.0,M,0.0,M,,*7E
$GPGSA,A,3,01,02,03,04,05,06,07,08,09,10,11,12,1.0,1.0,1.0*30
$GPRMC,233848.103,A,5141.741,N,00014.330,W,058.3,137.6,291222,000.0,W*6F
$GPGGA,233849.103,5141.726,N,00014.317,W,1,12,1.0,0.0,M,0.0,M,,*7B
$GPGSA,A,3,01,02,03,04,05,06,07,08,09,10,11,12,1.0,1.0,1.0*30
$GPRMC,233849.103,A,5141.726,N,00014.317,W,058.3,137.6,291222,000.0,W*6A
$GPGGA,233850.103,5141.712,N,00014.304,W,1,12,1.0,0.0,M,0.0,M,,*76
$GPGSA,A,3,01,02,03,04,05,06,07,08,09,10,11,12,1.0,1.0,1.0*30
$GPRMC,233850.103,A,5141.712,N,00014.304,W,058.3,137.6,291222,000.0,W*67
$GPGGA,233851.103,5141.698,N,00014.291,W,1,12,1.0,0.0,M,0.0,M,,*79
$GPGSA,A,3,01,02,03,04,05,06,07,08,09,10,11,12,1.0,1.0,1.0*30
$GPRMC,233851.103,A,5141.698,N,00014.291,W,058.3,137.6,291222,000.0,W*68
$GPGGA,233852.103,5141.684,N,00014.278,W,1,12,1.0,0.0,M,0.0,M,,*70
$GPGSA,A,3,01,02,03,04,05,06,07,08,09,10,11,12,1.0,1.0,1.0*30
$GPRMC,233852.103,A,5141.684,N,00014.278,W,058.3,137.6,291222,000.0,W*61
$GPGGA,233853.103,5141.670,N,00014.265,W,1,12,1.0,0.0,M,0.0,M,,*76
$GPGSA,A,3,01,02,03,04,05,06,07,08,09,10,11,12,1.0,1.0,1.0*30
$GPRMC,233853.103,A,5141.670,N,00014.265,W,058.3,137.6,291222,000.0,W*67
$GPGGA,233854.103,5141.656,N,00014.253,W,1,12,1.0,0.0,M,0.0,M,,*70
$GPGSA,A,3,01,02,03,04,05,06,07,08,09,10,11,12,1.0,1.0,1.0*30
$GPRMC,233854.103,A,5141.656,N,00014.253,W,058.3,137.6,291222,000.0,W*61
$GPGGA,233855.103,5141.642,N,00014.240,W,1,12,1.0,0.0,M,0.0,M,,*76
$GPGSA,A,3,01,02,03,04,05,06,07,08,09,10,11,12,1.0,1.0,1.0*30
$GPRMC,233855.103,A,5141.642,N,00014.240,W,058.3,137.6,291222,000.0,W*67
$GPGGA,233856.103,5141.628,N,00014.227,W,1,12,1.0,0.0,M,0.0,M,,*78
$GPGSA,A,3,01,02,03,04,05,06,07,08,09,10,11,12,1.0,1.0,1.0*30
$GPRMC,233856.103,A,5141.628,N,00014.227,W,058.3,137.6,291222,000.0,W*69
$GPGGA,233857.103,5141.614,N,00014.214,W,1,12,1.0,0.0,M,0.0,M,,*76
$GPGSA,A,3,01,02,03,04,05,06,07,08,09,10,11,12,1.0,1.0,1.0*30
$GPRMC,233857.103,A,5141.614,N,00014.214,W,058.3,137.6,291222,000.0,W*67
$GPGGA,233858.103,5141.600,N,00014.201,W,1,12,1.0,0.0,M,0.0,M,,*78
$GPGSA,A,3,01,02,03,04,05,06,07,08,09,10,11,12,1.0,1.0,1.0*30
$GPRMC,233858.103,A,5141.600,N,00014.201,W,058.3,137.6,291222,000.0,W*69
$GPGGA,233859.103,5141.586,N,00014.188,W,1,12,1.0,0.0,M,0.0,M,,*76
$GPGSA,A,3,01,02,03,04,05,06,07,08,09,10,11,12,1.0,1.0,1.0*30
$GPRMC,233859.103,A,5141.586,N,00014.188,W,058.3,137.6,291222,000.0,W*67
$GPGGA,233900.103,5141.572,N,00014.175,W,1,12,1.0,0.0,M,0.0,M,,*72
$GPGSA,A,3,01,02,03,04,05,06,07,08,09,10,11,12,1.0,1.0,1.0*30
$GPRMC,233900.103,A,5141.572,N,00014.175,W,058.3,137.6,291222,000.0,W*63
$GPGGA,233901.103,5141.558,N,00014.162,W,1,12,1.0,0.0,M,0.0,M,,*7D
$GPGSA,A,3,01,02,03,04,05,06,07,08,09,10,11,12,1.0,1.0,1.0*30
$GPRMC,233901.103,A,5141.558,N,00014.162,W,058.3,137.6,291222,000.0,W*6C
$GPGGA,233902.103,5141.544,N,00014.149,W,1,12,1.0,0.0,M,0.0,M,,*7A
$GPGSA,A,3,01,02,03,04,05,06,07,08,09,10,11,12,1.0,1.0,1.0*30
$GPRMC,233902.103,A,5141.544,N,00014.149,W,058.3,137.6,291222,000.0,W*6B
$GPGGA,233903.103,5141.529,N,00014.136,W,1,12,1.0,0.0,M,0.0,M,,*78
$GPGSA,A,3,01,02,03,04,05,06,07,08,09,10,11,12,1.0,1.0,1.0*30
$GPRMC,233903.103,A,5141.529,N,00014.136,W,058.3,137.6,291222,000.0,W*69
$GPGGA,233904.103,5141.515,N,00014.123,W,1,12,1.0,0.0,M,0.0,M,,*74
$GPGSA,A,3,01,02,03,04,05,06,07,08,09,10,11,12,1.0,1.0,1.0*30
$GPRMC,233904.103,A,5141.515,N,00014.123,W,058.3,137.6,291222,000.0,W*65
$GPGGA,233905.103,5141.501,N,00014.111,W,1,12,1.0,0.0,M,0.0,M,,*71
$GPGSA,A,3,01,02,03,04,05,06,07,08,09,10,11,12,1.0,1.0,1.0*30
$GPRMC,233905.103,A,5141.501,N,00014.111,W,058.3,137.6,291222,000.0,W*60
$GPGGA,233906.103,5141.487,N,00014.098,W,1,12,1.0,0.0,M,0.0,M,,*7D
$GPGSA,A,3,01,02,03,04,05,06,07,08,09,10,11,12,1.0,1.0,1.0*30
$GPRMC,233906.103,A,5141.487,N,00014.098,W,058.3,137.6,291222,000.0,W*6C
$GPGGA,233907.103,5141.473,N,00014.085,W,1,12,1.0,0.0,M,0.0,M,,*7B
$GPGSA,A,3,01,02,03,04,05,06,07,08,09,10,11,12,1.0,1.0,1.0*30
$GPRMC,233907.103,A,5141.473,N,00014.085,W,058.3,137.6,291222,000.0,W*6A
$GPGGA,233908.103,5141.459,N,00014.072,W,1,12,1.0,0.0,M,0.0,M,,*74
$GPGSA,A,3,01,02,03,04,05,06,07,08,09,10,11,12,1.0,1.0,1.0*30
$GPRMC,233908.103,A,5141.459,N,00014.072,W,058.3,137.6,291222,000.0,W*65
$GPGGA,233909.103,5141.445,N,00014.059,W,1,12,1.0,0.0,M,0.0,M,,*71
$GPGSA,A,3,01,02,03,04,05,06,07,08,09,10,11,12,1.0,1.0,1.0*30
$GPRMC,233909.103,A,5141.445,N,00014.059,W,058.3,137.6,291222,000.0,W*60
$GPGGA,233910.103,5141.431,N,00014.046,W,1,12,1.0,0.0,M,0.0,M,,*74
$GPGSA,A,3,01,02,03,04,05,06,07,08,09,10,11,12,1.0,1.0,1.0*30
$GPRMC,233910.103,A,5141.431,N,00014.046,W,058.3,137.6,291222,000.0,W*65
$GPGGA,233911.103,5141.417,N,00014.033,W,1,12,1.0,0.0,M,0.0,M,,*73
$GPGSA,A,3,01,02,03,04,05,06,07,08,09,10,11,12,1.0,1.0,1.0*30
$GPRMC,233911.103,A,5141.417,N,00014.033,W,058.3,137.6,291222,000.0,W*62
$GPGGA,233912.103,5141.403,N,00014.020,W,1,12,1.0,0.0,M,0.0,M,,*77
$GPGSA,A,3,01,02,03,04,05,06,07,08,09,10,11,12,1.0,1.0,1.0*30
$GPRMC,233912.103,A,5141.403,N,00014.020,W,058.3,137.6,291222,000.0,W*66
$GPGGA,233913.103,5141.389,N,00014.007,W,1,12,1.0,0.0,M,0.0,M,,*76
$GPGSA,A,3,01,02,03,04,05,06,07,08,09,10,11,12,1.0,1.0,1.0*30
$GPRMC,233913.103,A,5141.389,N,00014.007,W,058.3,137.6,291222,000.0,W*67
$GPGGA,233914.103,5141.375,N,00013.994,W,1,12,1.0,0.0,M,0.0,M,,*76
$GPGSA,A,3,01,02,03,04,05,06,07,08,09,10,11,12,1.0,1.0,1.0*30
$GPRMC,233914.103,A,5141.375,N,00013.994,W,058.3,137.6,291222,000.0,W*67
$GPGGA,233915.103,5141.361,N,00013.981,W,1,12,1.0,0.0,M,0.0,M,,*76
$GPGSA,A,3,01,02,03,04,05,06,07,08,09,10,11,12,1.0,1.0,1.0*30
$GPRMC,233915.103,A,5141.361,N,00013.981,W,058.3,137.6,291222,000.0,W*67
$GPGGA,233916.103,5141.347,N,00013.969,W,1,12,1.0,0.0,M,0.0,M,,*77
$GPGSA,A,3,01,02,03,04,05,06,07,08,09,10,11,12,1.0,1.0,1.0*30
$GPRMC,233916.103,A,5141.347,N,00013.969,W,058.3,137.6,291222,000.0,W*66
$GPGGA,233917.103,5141.332,N,00013.956,W,1,12,1.0,0.0,M,0.0,M,,*78
$GPGSA,A,3,01,02,03,04,05,06,07,08,09,10,11,12,1.0,1.0,1.0*30
$GPRMC,233917.103,A,5141.332,N,00013.956,W,058.3,137.6,291222,000.0,W*69
$GPGGA,233918.103,5141.318,N,00013.943,W,1,12,1.0,0.0,M,0.0,M,,*7B
$GPGSA,A,3,01,02,03,04,05,06,07,08,09,10,11,12,1.0,1.0,1.0*30
$GPRMC,233918.103,A,5141.318,N,00013.943,W,058.3,137.6,291222,000.0,W*6A
$GPGGA,233919.103,5141.304,N,00013.930,W,1,12,1.0,0.0,M,0.0,M,,*73
$GPGSA,A,3,01,02,03,04,05,06,07,08,09,10,11,12,1.0,1.0,1.0*30
$GPRMC,233919.103,A,5141.304,N,00013.930,W,058.3,137.6,291222,000.0,W*62
$GPGGA,233920.103,5141.290,N,00013.917,W,1,12,1.0,0.0,M,0.0,M,,*70
$GPGSA,A,3,01,02,03,04,05,06,07,08,09,10,11,12,1.0,1.0,1.0*30
$GPRMC,233920.103,A,5141.290,N,00013.917,W,058.3,137.6,291222,000.0,W*61
$GPGGA,233921.103,5141.276,N,00013.904,W,1,12,1.0,0.0,M,0.0,M,,*7B
$GPGSA,A,3,01,02,03,04,05,06,07,08,09,10,11,12,1.0,1.0,1.0*30
$GPRMC,233921.103,A,5141.276,N,00013.904,W,058.3,137.6,291222,000.0,W*6A
$GPGGA,233922.103,5141.262,N,00013.891,W,1,12,1.0,0.0,M,0.0,M,,*70
$GPGSA,A,3,01,02,03,04,05,06,07,08,09,10,11,12,1.0,1.0,1.0*30
$GPRMC,233922.103,A,5141.262,N,00013.891,W,058.3,137.6,291222,000.0,W*61
$GPGGA,233923.103,5141.248,N,00013.878,W,1,12,1.0,0.0,M,0.0,M,,*7E
$GPGSA,A,3,01,02,03,04,05,06,07,08,09,10,11,12,1.0,1.0,1.0*30
$GPRMC,233923.103,A,5141.248,N,00013.878,W,058.3,137.6,291222,000.0,W*6F
$GPGGA,233924.103,5141.234,N,00013.865,W,1,12,1.0,0.0,M,0.0,M,,*7E
$GPGSA,A,3,01,02,03,04,05,06,07,08,09,10,11,12,1.0,1.0,1.0*30
$GPRMC,233924.103,A,5141.234,N,00013.865,W,058.3,137.6,291222,000.0,W*6F
$GPGGA,233925.103,5141.220,N,00013.852,W,1,12,1.0,0.0,M,0.0,M,,*7E
$GPGSA,A,3,01,02,03,04,05,06,07,08,09,10,11,12,1.0,1.0,1.0*30
$GPRMC,233925.103,A,5141.220,N,00013.852,W,058.3,103.8,291222,000.0,W*66
$GPGGA,233926.103,5141.214,N,00013.828,W,1,12,1.0,0.0,M,0.0,M,,*77
$GPGSA,A,3,01,02,03,04,05,06,07,08,09,10,11,12,1.0,1.0,1.0*30
$GPRMC,233926.103,A,5141.214,N,00013.828,W,058.3,103.8,291222,000.0,W*6F
$GPGGA,233927.103,5141.208,N,00013.804,W,1,12,1.0,0.0,M,0.0,M,,*75
$GPGSA,A,3,01,02,03,04,05,06,07,08,09,10,11,12,1.0,1.0,1.0*30
$GPRMC,233927.103,A,5141.208,N,00013.804,W,058.3,103.8,291222,000.0,W*6D
$GPGGA,233928.103,5141.202,N,00013.780,W,1,12,1.0,0.0,M,0.0,M,,*73
$GPGSA,A,3,01,02,03,04,05,06,07,08,09,10,11,12,1.0,1.0,1.0*30
$GPRMC,233928.103,A,5141.202,N,00013.780,W,058.3,103.8,291222,000.0,W*6B
$GPGGA,233929.103,5141.196,N,00013.755,W,1,12,1.0,0.0,M,0.0,M,,*74
$GPGSA,A,3,01,02,03,04,05,06,07,08,09,10,11,12,1.0,1.0,1.0*30
$GPRMC,233929.103,A,5141.196,N,00013.755,W,058.3,103.8,291222,000.0,W*6C
$GPGGA,233930.103,5141.190,N,00013.731,W,1,12,1.0,0.0,M,0.0,M,,*78
$GPGSA,A,3,01,02,03,04,05,06,07,08,09,10,11,12,1.0,1.0,1.0*30
$GPRMC,233930.103,A,5141.190,N,00013.731,W,058.3,103.8,291222,000.0,W*60
$GPGGA,233931.103,5141.184,N,00013.707,W,1,12,1.0,0.0,M,0.0,M,,*79
$GPGSA,A,3,01,02,03,04,05,06,07,08,09,10,11,12,1.0,1.0,1.0*30
$GPRMC,233931.103,A,5141.184,N,00013.707,W,058.3,103.8,291222,000.0,W*61
$GPGGA,233932.103,5141.178,N,00013.682,W,1,12,1.0,0.0,M,0.0,M,,*75
$GPGSA,A,3,01,02,03,04,05,06,07,08,09,10,11,12,1.0,1.0,1.0*30
$GPRMC,233932.103,A,5141.178,N,00013.682,W,058.3,103.8,291222,000.0,W*6D
$GPGGA,233933.103,5141.172,N,00013.658,W,1,12,1.0,0.0,M,0.0,M,,*79
$GPGSA,A,3,01,02,03,04,05,06,07,08,09,10,11,12,1.0,1.0,1.0*30
$GPRMC,233933.103,A,5141.172,N,00013.658,W,058.3,103.8,291222,000.0,W*61
$GPGGA,233934.103,5141.166,N,00013.634,W,1,12,1.0,0.0,M,0.0,M,,*71
$GPGSA,A,3,01,02,03,04,05,06,07,08,09,10,11,12,1.0,1.0,1.0*30
$GPRMC,233934.103,A,5141.166,N,00013.634,W,058.3,103.8,291222,000.0,W*69
$GPGGA,233935.103,5141.160,N,00013.610,W,1,12,1.0,0.0,M,0.0,M,,*70
$GPGSA,A,3,01,02,03,04,05,06,07,08,09,10,11,12,1.0,1.0,1.0*30
$GPRMC,233935.103,A,5141.160,N,00013.610,W,058.3,103.8,291222,000.0,W*68
$GPGGA,233936.103,5141.154,N,00013.585,W,1,12,1.0,0.0,M,0.0,M,,*7B
$GPGSA,A,3,01,02,03,04,05,06,07,08,09,10,11,12,1.0,1.0,1.0*30
$GPRMC,233936.103,A,5141.154,N,00013.585,W,058.3,103.8,291222,000.0,W*63
$GPGGA,233937.103,5141.148,N,00013.561,W,1,12,1.0,0.0,M,0.0,M,,*7D
$GPGSA,A,3,01,02,03,04,05,06,07,08,09,10,11,12,1.0,1.0,1.0*30
$GPRMC,233937.103,A,5141.148,N,00013.561,W,058.3,103.8,291222,000.0,W*65
$GPGGA,233938.103,5141.142,N,00013.537,W,1,12,1.0,0.0,M,0.0,M,,*7B
$GPGSA,A,3,01,02,03,04,05,06,07,08,09,10,11,12,1.0,1.0,1.0*30
$GPRMC,233938.103,A,5141.142,N,00013.537,W,058.3,103.8,291222,000.0,W*63
$GPGGA,233939.103,5141.137,N,00013.512,W,1,12,1.0,0.0,M,0.0,M,,*7F
$GPGSA,A,3,01,02,03,04,05,06,07,08,09,10,11,12,1.0,1.0,1.0*30
$GPRMC,233939.103,A,5141.137,N,00013.512,W,058.3,103.8,291222,000.0,W*67
$GPGGA,233940.103,5141.131,N,00013.488,W,1,12,1.0,0.0,M,0.0,M,,*75
$GPGSA,A,3,01,02,03,04,05,06,07,08,09,10,11,12,1.0,1.0,1.0*30
$GPRMC,233940.103,A,5141.131,N,00013.488,W,058.3,103.8,291222,000.0,W*6D
$GPGGA,233941.103,5141.125,N,00013.464,W,1,12,1.0,0.0,M,0.0,M,,*73
$GPGSA,A,3,01,02,03,04,05,06,07,08,09,10,11,12,1.0,1.0,1.0*30
$GPRMC,233941.103,A,5141.125,N,00013.464,W,058.3,103.8,291222,000.0,W*6B
$GPGGA,233942.103,5141.119,N,00013.440,W,1,12,1.0,0.0,M,0.0,M,,*79
$GPGSA,A,3,01,02,03,04,05,06,07,08,09,10,11,12,1.0,1.0,1.0*30
$GPRMC,233942.103,A,5141.119,N,00013.440,W,058.3,103.8,291222,000.0,W*61
$GPGGA,233943.103,5141.113,N,00013.415,W,1,12,1.0,0.0,M,0.0,M,,*72
$GPGSA,A,3,01,02,03,04,05,06,07,08,09,10,11,12,1.0,1.0,1.0*30
$GPRMC,233943.103,A,5141.113,N,00013.415,W,058.3,103.8,291222,000.0,W*6A
$GPGGA,233944.103,5141.107,N,00013.391,W,1,12,1.0,0.0,M,0.0,M,,*7B
$GPGSA,A,3,01,02,03,04,05,06,07,08,09,10,11,12,1.0,1.0,1.0*30
$GPRMC,233944.103,A,5141.107,N,00013.391,W,058.3,103.8,291222,000.0,W*63
$GPGGA,233945.103,5141.101,N,00013.367,W,1,12,1.0,0.0,M,0.0,M,,*75
$GPGSA,A,3,01,02,03,04,05,06,07,08,09,10,11,12,1.0,1.0,1.0*30
$GPRMC,233945.103,A,5141.101,N,00013.367,W,058.3,103.8,291222,000.0,W*6D
$GPGGA,233946.103,5141.095,N,00013.343,W,1,12,1.0,0.0,M,0.0,M,,*7C
$GPGSA,A,3,01,02,03,04,05,06,07,08,09,10,11,12,1.0,1.0,1.0*30
$GPRMC,233946.103,A,5141.095,N,00013.343,W,058.3,103.8,291222,000.0,W*64
$GPGGA,233947.103,5141.089,N,00013.318,W,1,12,1.0,0.0,M,0.0,M,,*7E
$GPGSA,A,3,01,02,03,04,05,06,07,08,09,10,11,12,1.0,1.0,1.0*30
$GPRMC,233947.103,A,5141.089,N,00013.318,W,058.3,103.8,291222,000.0,W*66
$GPGGA,233948.103,5141.083,N,00013.294,W,1,12,1.0,0.0,M,0.0,M,,*7E
$GPGSA,A,3,01,02,03,04,05,06,07,08,09,10,11,12,1.0,1.0,1.0*30
$GPRMC,233948.103,A,5141.083,N,00013.294,W,058.3,103.8,291222,000.0,W*66
$GPGGA,233949.103,5141.077,N,00013.270,W,1,12,1.0,0.0,M,0.0,M,,*7E
$GPGSA,A,3,01,02,03,04,05,06,07,08,09,10,11,12,1.0,1.0,1.0*30
$GPRMC,233949.103,A,5141.077,N,00013.270,W,058.3,103.8,291222,000.0,W*66
$GPGGA,233950.103,5141.071,N,00013.245,W,1,12,1.0,0.0,M,0.0,M,,*76
$GPGSA,A,3,01,02,03,04,05,06,07,08,09,10,11,12,1.0,1.0,1.0*30
$GPRMC,233950.103,A,5141.071,N,00013.245,W,058.3,103.8,291222,000.0,W*6E
$GPGGA,233951.103,5141.065,N,00013.221,W,1,12,1.0,0.0,M,0.0,M,,*70
$GPGSA,A,3,01,02,03,04,05,06,07,08,09,10,11,12,1.0,1.0,1.0*30
$GPRMC,233951.103,A,5141.065,N,00013.221,W,058.3,103.8,291222,000.0,W*68
$GPGGA,233952.103,5141.059,N,00013.197,W,1,12,1.0,0.0,M,0.0,M,,*72
$GPGSA,A,3,01,02,03,04,05,06,07,08,09,10,11,12,1.0,1.0,1.0*30
$GPRMC,233952.103,A,5141.059,N,00013.197,W,058.3,103.8,291222,000.0,W*6A
$GPGGA,233953.103,5141.053,N,00013.173,W,1,12,1.0,0.0,M,0.0,M,,*73
$GPGSA,A,3,01,02,03,04,05,06,07,08,09,10,11,12,1.0,1.0,1.0*30
$GPRMC,233953.103,A,5141.053,N,00013.173,W,058.3,103.8,291222,000.0,W*6B
$GPGGA,233954.103,5141.047,N,00013.148,W,1,12,1.0,0.0,M,0.0,M,,*79
$GPGSA,A,3,01,02,03,04,05,06,07,08,09,10,11,12,1.0,1.0,1.0*30
$GPRMC,233954.103,A,5141.047,N,00013.148,W,058.3,103.8,291222,000.0,W*61
$GPGGA,233955.103,5141.041,N,00013.124,W,1,12,1.0,0.0,M,0.0,M,,*74
$GPGSA,A,3,01,02,03,04,05,06,07,08,09,10,11,12,1.0,1.0,1.0*30
$GPRMC,233955.103,A,5141.041,N,00013.124,W,058.3,103.8,291222,000.0,W*6C
$GPGGA,233956.103,5141.035,N,00013.100,W,1,12,1.0,0.0,M,0.0,M,,*72
$GPGSA,A,3,01,02,03,04,05,06,07,08,09,10,11,12,1.0,1.0,1.0*30
$GPRMC,233956.103,A,5141.035,N,00013.100,W,058.3,103.8,291222,000.0,W*6A
$GPGGA,233957.103,5141.029,N,00013.075,W,1,12,1.0,0.0,M,0.0,M,,*7D
$GPGSA,A,3,01,02,03,04,05,06,07,08,09,10,11,12,1.0,1.0,1.0*30
$GPRMC,233957.103,A,5141.029,N,00013.075,W,058.3,103.8,291222,000.0,W*65
$GPGGA,233958.103,5141.023,N,00013.051,W,1,12,1.0,0.0,M,0.0,M,,*7E
$GPGSA,A,3,01,02,03,04,05,06,07,08,09,10,11,12,1.0,1.0,1.0*30
$GPRMC,233958.103,A,5141.023,N,00013.051,W,058.3,103.8,291222,000.0,W*66
$GPGGA,233959.103,5141.017,N,00013.027,W,1,12,1.0,0.0,M,0.0,M,,*79
$GPGSA,A,3,01,02,03,04,05,06,07,08,09,10,11,12,1.0,1.0,1.0*30
$GPRMC,233959.103,A,5141.017,N,00013.027,W,058.3,103.8,291222,000.0,W*61
$GPGGA,234000.103,5141.011,N,00013.003,W,1,12,1.0,0.0,M,0.0,M,,*7B
$GPGSA,A,3,01,02,03,04,05,06,07,08,09,10,11,12,1.0,1.0,1.0*30
$GPRMC,234000.103,A,5141.011,N,00013.003,W,058.3,103.8,291222,000.0,W*63
$GPGGA,234001.103,5141.006,N,00012.978,W,1,12,1.0,0.0,M,0.0,M,,*78
$GPGSA,A,3,01,02,03,04,05,06,07,08,09,10,11,12,1.0,1.0,1.0*30
$GPRMC,234001.103,A,5141.006,N,00012.978,W,058.3,103.8,291222,000.0,W*60
$GPGGA,234002.103,5141.000,N,00012.954,W,1,12,1.0,0.0,M,0.0,M,,*73
$GPGSA,A,3,01,02,03,04,05,06,07,08,09,10,11,12,1.0,1.0,1.0*30
$GPRMC,234002.103,A,5141.000,N,00012.954,W,058.3,103.8,291222,000.0,W*6B
$GPGGA,234003.103,5140.994,N,00012.930,W,1,12,1.0,0.0,M,0.0,M,,*75
$GPGSA,A,3,01,02,03,04,05,06,07,08,09,10,11,12,1.0,1.0,1.0*30
$GPRMC,234003.103,A,5140.994,N,00012.930,W,058.3,076.2,291222,000.0,W*64
$GPGGA,234004.103,5141.000,N,00012.906,W,1,12,1.0,0.0,M,0.0,M,,*72
$GPGSA,A,3,01,02,03,04,05,06,07,08,09,10,11,12,1.0,1.0,1.0*30
$GPRMC,234004.103,A,5141.000,N,00012.906,W,058.3,076.2,291222,000.0,W*63
$GPGGA,234005.103,5141.005,N,00012.881,W,1,12,1.0,0.0,M,0.0,M,,*78
$GPGSA,A,3,01,02,03,04,05,06,07,08,09,10,11,12,1.0,1.0,1.0*30
$GPRMC,234005.103,A,5141.005,N,00012.881,W,058.3,076.2,291222,000.0,W*69
$GPGGA,234006.103,5141.011,N,00012.857,W,1,12,1.0,0.0,M,0.0,M,,*75
$GPGSA,A,3,01,02,03,04,05,06,07,08,09,10,11,12,1.0,1.0,1.0*30
$GPRMC,234006.103,A,5141.011,N,00012.857,W,058.3,076.2,291222,000.0,W*64
$GPGGA,234007.103,5141.017,N,00012.833,W,1,12,1.0,0.0,M,0.0,M,,*70
$GPGSA,A,3,01,02,03,04,05,06,07,08,09,10,11,12,1.0,1.0,1.0*30
$GPRMC,234007.103,A,5141.017,N,00012.833,W,058.3,076.2,291222,000.0,W*61
$GPGGA,234008.103,5141.023,N,00012.808,W,1,12,1.0,0.0,M,0.0,M,,*70
$GPGSA,A,3,01,02,03,04,05,06,07,08,09,10,11,12,1.0,1.0,1.0*30
$GPRMC,234008.103,A,5141.023,N,00012.808,W,058.3,076.2,291222,000.0,W*61
$GPGGA,234009.103,5141.029,N,00012.784,W,1,12,1.0,0.0,M,0.0,M,,*70
$GPGSA,A,3,01,02,03,04,05,06,07,08,09,10,11,12,1.0,1.0,1.0*30
$GPRMC,234009.103,A,5141.029,N,00012.784,W,058.3,076.2,291222,000.0,W*61
$GPGGA,234010.103,5141.035,N,00012.760,W,1,12,1.0,0.0,M,0.0,M,,*7F
$GPGSA,A,3,01,02,03,04,05,06,07,08,09,10,11,12,1.0,1.0,1.0*30
$GPRMC,234010.103,A,5141.035,N,00012.760,W,058.3,076.2,291222,000.0,W*6E
$GPGGA,234011.103,5141.041,N,00012.736,W,1,12,1.0,0.0,M,0.0,M,,*7E
$GPGSA,A,3,01,02,03,04,05,06,07,08,09,10,11,12,1.0,1.0,1.0*30
$GPRMC,234011.103,A,5141.041,N,00012.736,W,058.3,076.2,291222,000.0,W*6F
$GPGGA,234012.103,5141.047,N,00012.711,W,1,12,1.0,0.0,M,0.0,M,,*7E
$GPGSA,A,3,01,02,03,04,05,06,07,08,09,10,11,12,1.0,1.0,1.0*30
$GPRMC,234012.103,A,5141.047,N,00012.711,W,058.3,076.2,291222,000.0,W*6F
$GPGGA,234013.103,5141.053,N,00012.687,W,1,12,1.0,0.0,M,0.0,M,,*74
$GPGSA,A,3,01,02,03,04,05,06,07,08,09,10,11,12,1.0,1.0,1.0*30
$GPRMC,234013.103,A,5141.053,N,00012.687,W,058.3,076.2,291222,000.0,W*65
$GPGGA,234014.103,5141.059,N,00012.663,W,1,12,1.0,0.0,M,0.0,M,,*73
$GPGSA,A,3,01,02,03,04,05,06,07,08,09,10,11,12,1.0,1.0,1.0*30
$GPRMC,234014.103,A,5141.059,N,00012.663,W,058.3,076.2,291222,000.0,W*62
$GPGGA,234015.103,5141.065,N,00012.638,W,1,12,1.0,0.0,M,0.0,M,,*73
$GPGSA,A,3,01,02,03,04,05,06,07,08,09,10,11,12,1.0,1.0,1.0*30
$GPRMC,234015.103,A,5141.065,N,00012.638,W,058.3,076.2,291222,000.0,W*62
$GPGGA,234016.103,5141.071,N,00012.614,W,1,12,1.0,0.0,M,0.0,M,,*7B
$GPGSA,A,3,01,02,03,04,05,06,07,08,09,10,11,12,1.0,1.0,1.0*30
$GPRMC,234016.103,A,5141.071,N,00012.614,W,058.3,076.2,291222,000.0,W*6A
$GPGGA,234017.103,5141.077,N,00012.590,W,1,12,1.0,0.0,M,0.0,M,,*73
$GPGSA,A,3,01,02,03,04,05,06,07,08,09,10,11,12,1.0,1.0,1.0*30
$GPRMC,234017.103,A,5141.077,N,00012.590,W,058.3,076.2,291222,000.0,W*62
$GPGGA,234018.103,5141.083,N,00012.566,W,1,12,1.0,0.0,M,0.0,M,,*7E
$GPGSA,A,3,01,02,03,04,05,06,07,08,09,10,11,12,1.0,1.0,1.0*30
$GPRMC,234018.103,A,5141.083,N,00012.566,W,058.3,076.2,291222,000.0,W*6F
$GPGGA,234019.103,5141.089,N,00012.541,W,1,12,1.0,0.0,M,0.0,M,,*70
$GPGSA,A,3,01,02,03,04,05,06,07,08,09,10,11,12,1.0,1.0,1.0*30
$GPRMC,234019.103,A,5141.089,N,00012.541,W,058.3,076.2,291222,000.0,W*61
$GPGGA,234020.103,5141.095,N,00012.517,W,1,12,1.0,0.0,M,0.0,M,,*74
$GPGSA,A,3,01,02,03,04,05,06,07,08,09,10,11,12,1.0,1.0,1.0*30
$GPRMC,234020.103,A,5141.095,N,00012.517,W,058.3,076.2,291222,000.0,W*65
$GPGGA,234021.103,5141.101,N,00012.493,W,1,12,1.0,0.0,M,0.0,M,,*74
$GPGSA,A,3,01,02,03,04,05,06,07,08,09,10,11,12,1.0,1.0,1.0*30
$GPRMC,234021.103,A,5141.101,N,00012.493,W,058.3,076.2,291222,000.0,W*65
$GPGGA,234022.103,5141.107,N,00012.468,W,1,12,1.0,0.0,M,0.0,M,,*75
$GPGSA,A,3,01,02,03,04,05,06,07,08,09,10,11,12,1.0,1.0,1.0*30
$GPRMC,234022.103,A,5141.107,N,00012.468,W,058.3,076.2,291222,000.0,W*64
$GPGGA,234023.103,5141.112,N,00012.444,W,1,12,1.0,0.0,M,0.0,M,,*7E
$GPGSA,A,3,01,02,03,04,05,06,07,08,09,10,11,12,1.0,1.0,1.0*30
$GPRMC,234023.103,A,5141.112,N,00012.444,W,058.3,076.2,291222,000.0,W*6F
$GPGGA,234024.103,5141.118,N,00012.420,W,1,12,1.0,0.0,M,0.0,M,,*71
$GPGSA,A,3,01,02,03,04,05,06,07,08,09,10,11,12,1.0,1.0,1.0*30
$GPRMC,234024.103,A,5141.118,N,00012.420,W,058.3,076.2,291222,000.0,W*60
$GPGGA,234025.103,5141.124,N,00012.396,W,1,12,1.0,0.0,M,0.0,M,,*75
$GPGSA,A,3,01,02,03,04,05,06,07,08,09,10,11,12,1.0,1.0,1.0*30
$GPRMC,234025.103,A,5141.124,N,00012.396,W,058.3,076.2,291222,000.0,W*64
$GPGGA,234026.103,5141.130,N,00012.371,W,1,12,1.0,0.0,M,0.0,M,,*7A
$GPGSA,A,3,01,02,03,04,05,06,07,08,09,10,11,12,1.0,1.0,1.0*30
$GPRMC,234026.103,A,5141.130,N,00012.371,W,058.3,076.2,291222,000.0,W*6B
$GPGGA,234027.103,5141.136,N,00012.347,W,1,12,1.0,0.0,M,0.0,M,,*78
$GPGSA,A,3,01,02,03,04,05,06,07,08,09,10,11,12,1.0,1.0,1.0*30
$GPRMC,234027.103,A,5141.136,N,00012.347,W,058.3,076.2,291222,000.0,W*69
$GPGGA,234028.103,5141.142,N,00012.323,W,1,12,1.0,0.0,M,0.0,M,,*76
$GPGSA,A,3,01,02,03,04,05,06,07,08,09,10,11,12,1.0,1.0,1.0*30
$GPRMC,234028.103,A,5141.142,N,00012.323,W,058.3,090.7,291222,000.0,W*6A
$GPGGA,234029.103,5141.142,N,00012.297,W,1,12,1.0,0.0,M,0.0,M,,*79
$GPGSA,A,3,01,02,03,04,05,06,07,08,09,10,11,12,1.0,1.0,1.0*30
$GPRMC,234029.103,A,5141.142,N,00012.297,W,058.3,090.7,291222,000.0,W*65
$GPGGA,234030.103,5141.142,N,00012.270,W,1,12,1.0,0.0,M,0.0,M,,*78
$GPGSA,A,3,01,02,03,04,05,06,07,08,09,10,11,12,1.0,1.0,1.0*30
$GPRMC,234030.103,A,5141.142,N,00012.270,W,058.3,090.7,291222,000.0,W*64
$GPGGA,234031.103,5141.141,N,00012.244,W,1,12,1.0,0.0,M,0.0,M,,*7D
$GPGSA,A,3,01,02,03,04,05,06,07,08,09,10,11,12,1.0,1.0,1.0*30
$GPRMC,234031.103,A,5141.141,N,00012.244,W,058.3,090.7,291222,000.0,W*61
$GPGGA,234032.103,5141.141,N,00012.218,W,1,12,1.0,0.0,M,0.0,M,,*77
$GPGSA,A,3,01,02,03,04,05,06,07,08,09,10,11,12,1.0,1.0,1.0*30
$GPRMC,234032.103,A,5141.141,N,00012.218,W,058.3,090.7,291222,000.0,W*6B
$GPGGA,234033.103,5141.141,N,00012.192,W,1,12,1.0,0.0,M,0.0,M,,*77
$GPGSA,A,3,01,02,03,04,05,06,07,08,09,10,11,12,1.0,1.0,1.0*30
$GPRMC,234033.103,A,5141.141,N,00012.192,W,058.3,090.7,291222,000.0,W*6B
$GPGGA,234034.103,5141.140,N,00012.166,W,1,12,1.0,0.0,M,0.0,M,,*7A
$GPGSA,A,3,01,02,03,04,05,06,07,08,09,10,11,12,1.0,1.0,1.0*30
$GPRMC,234034.103,A,5141.140,N,00012.166,W,058.3,090.7,291222,000.0,W*66
$GPGGA,234035.103,5141.140,N,00012.140,W,1,12,1.0,0.0,M,0.0,M,,*7F
$GPGSA,A,3,01,02,03,04,05,06,07,08,09,10,11,12,1.0,1.0,1.0*30
$GPRMC,234035.103,A,5141.140,N,00012.140,W,058.3,090.7,291222,000.0,W*63
$GPGGA,234036.103,5141.140,N,00012.114,W,1,12,1.0,0.0,M,0.0,M,,*7D
$GPGSA,A,3,01,02,03,04,05,06,07,08,09,10,11,12,1.0,1.0,1.0*30
$GPRMC,234036.103,A,5141.140,N,00012.114,W,058.3,090.7,291222,000.0,W*61
$GPGGA,234037.103,5141.139,N,00012.088,W,1,12,1.0,0.0,M,0.0,M,,*76
$GPGSA,A,3,01,02,03,04,05,06,07,08,09,10,11,12,1.0,1.0,1.0*30
$GPRMC,234037.103,A,5141.139,N,00012.088,W,058.3,090.7,291222,000.0,W*6A
$GPGGA,234038.103,5141.139,N,00012.062,W,1,12,1.0,0.0,M,0.0,M,,*7D
$GPGSA,A,3,01,02,03,04,05,06,07,08,09,10,11,12,1.0,1.0,1.0*30
$GPRMC,234038.103,A,5141.139,N,00012.062,W,058.3,090.7,291222,000.0,W*61
$GPGGA,234039.103,5141.139,N,00012.035,W,1,12,1.0,0.0,M,0.0,M,,*7E
$GPGSA,A,3,01,02,03,04,05,06,07,08,09,10,11,12,1.0,1.0,1.0*30
$GPRMC,234039.103,A,5141.139,N,00012.035,W,058.3,090.7,291222,000.0,W*62
$GPGGA,234040.103,5141.138,N,00012.009,W,1,12,1.0,0.0,M,0.0,M,,*7E
$GPGSA,A,3,01,02,03,04,05,06,07,08,09,10,11,12,1.0,1.0,1.0*30
$GPRMC,234040.103,A,5141.138,N,00012.009,W,058.3,090.7,291222,000.0,W*62
$GPGGA,234041.103,5141.138,N,00011.983,W,1,12,1.0,0.0,M,0.0,M,,*77
$GPGSA,A,3,01,02,03,04,05,06,07,08,09,10,11,12,1.0,1.0,1.0*30
$GPRMC,234041.103,A,5141.138,N,00011.983,W,058.3,090.7,291222,000.0,W*6B
$GPGGA,234042.103,5141.138,N,00011.957,W,1,12,1.0,0.0,M,0.0,M,,*7D
$GPGSA,A,3,01,02,03,04,05,06,07,08,09,10,11,12,1.0,1.0,1.0*30
$GPRMC,234042.103,A,5141.138,N,00011.957,W,058.3,090.7,291222,000.0,W*61
$GPGGA,234043.103,5141.137,N,00011.931,W,1,12,1.0,0.0,M,0.0,M,,*73
$GPGSA,A,3,01,02,03,04,05,06,07,08,09,10,11,12,1.0,1.0,1.0*30
$GPRMC,234043.103,A,5141.137,N,00011.931,W,058.3,090.7,291222,000.0,W*6F
$GPGGA,234044.103,5141.137,N,00011.905,W,1,12,1.0,0.0,M,0.0,M,,*73
$GPGSA,A,3,01,02,03,04,05,06,07,08,09,10,11,12,1.0,1.0,1.0*30
$GPRMC,234044.103,A,5141.137,N,00011.905,W,058.3,090.7,291222,000.0,W*6F
$GPGGA,234045.103,5141.137,N,00011.879,W,1,12,1.0,0.0,M,0.0,M,,*78
$GPGSA,A,3,01,02,03,04,05,06,07,08,09,10,11,12,1.0,1.0,1.0*30
$GPRMC,234045.103,A,5141.137,N,00011.879,W,058.3,090.7,291222,000.0,W*64
$GPGGA,234046.103,5141.136,N,00011.853,W,1,12,1.0,0.0,M,0.0,M,,*72
$GPGSA,A,3,01,02,03,04,05,06,07,08,09,10,11,12,1.0,1.0,1.0*30
$GPRMC,234046.103,A,5141.136,N,00011.853,W,058.3,090.7,291222,000.0,W*6E
$GPGGA,234047.103,5141.136,N,00011.827,W,1,12,1.0,0.0,M,0.0,M,,*70
$GPGSA,A,3,01,02,03,04,05,06,07,08,09,10,11,12,1.0,1.0,1.0*30
$GPRMC,234047.103,A,5141.136,N,00011.827,W,058.3,090.7,291222,000.0,W*6C
$GPGGA,234048.103,5141.136,N,00011.801,W,1,12,1.0,0.0,M,0.0,M,,*7B
$GPGSA,A,3,01,02,03,04,05,06,07,08,09,10,11,12,1.0,1.0,1.0*30
$GPRMC,234048.103,A,5141.136,N,00011.801,W,058.3,090.7,291222,000.0,W*67
$GPGGA,234049.103,5141.135,N,00011.774,W,1,12,1.0,0.0,M,0.0,M,,*74
$GPGSA,A,3,01,02,03,04,05,06,07,08,09,10,11,12,1.0,1.0,1.0*30
$GPRMC,234049.103,A,5141.135,N,00011.774,W,058.3,090.7,291222,000.0,W*68
$GPGGA,234050.103,5141.135,N,00011.748,W,1,12,1.0,0.0,M,0.0,M,,*73
$GPGSA,A,3,01,02,03,04,05,06,07,08,09,10,11,12,1.0,1.0,1.0*30
$GPRMC,234050.103,A,5141.135,N,00011.748,W,058.3,096.5,291222,000.0,W*6B
$GPGGA,234051.103,5141.132,N,00011.723,W,1,12,1.0,0.0,M,0.0,M,,*78
$GPGSA,A,3,01,02,03,04,05,06,07,08,09,10,11,12,1.0,1.0,1.0*30
$GPRMC,234051.103,A,5141.132,N,00011.723,W,058.3,096.5,291222,000.0,W*60
$GPGGA,234052.103,5141.129,N,00011.697,W,1,12,1.0,0.0,M,0.0,M,,*7F
$GPGSA,A,3,01,02,03,04,05,06,07,08,09,10,11,12,1.0,1.0,1.0*30
$GPRMC,234052.103,A,5141.129,N,00011.697,W,058.3,096.5,291222,000.0,W*67
$GPGGA,234053.103,5141.126,N,00011.671,W,1,12,1.0,0.0,M,0.0,M,,*79
$GPGSA,A,3,01,02,03,04,05,06,07,08,09,10,11,12,1.0,1.0,1.0*30
$GPRMC,234053.103,A,5141.126,N,00011.671,W,058.3,096.5,291222,000.0,W*61
$GPGGA,234054.103,5141.123,N,00011.646,W,1,12,1.0,0.0,M,0.0,M,,*7F
$GPGSA,A,3,01,02,03,04,05,06,07,08,09,10,11,12,1.0,1.0,1.0*30
$GPRMC,234054.103,A,5141.123,N,00011.646,W,058.3,096.5,291222,000.0,W*67
$GPGGA,234055.103,5141.120,N,00011.620,W,1,12,1.0,0.0,M,0.0,M,,*7D
$GPGSA,A,3,01,02,03,04,05,06,07,08,09,10,11,12,1.0,1.0,1.0*30
$GPRMC,234055.103,A,5141.120,N,00011.620,W,058.3,096.5,291222,000.0,W*65
$GPGGA,234056.103,5141.118,N,00011.594,W,1,12,1.0,0.0,M,0.0,M,,*79
$GPGSA,A,3,01,02,03,04,05,06,07,08,09,10,11,12,1.0,1.0,1.0*30
$GPRMC,234056.103,A,5141.118,N,00011.594,W,058.3,096.5,291222,000.0,W*61
$GPGGA,234057.103,5141.115,N,00011.569,W,1,12,1.0,0.0,M,0.0,M,,*77
$GPGSA,A,3,01,02,03,04,05,06,07,08,09,10,11,12,1.0,1.0,1.0*30
$GPRMC,234057.103,A,5141.115,N,00011.569,W,058.3,096.5,291222,000.0,W*6F
$GPGGA,234058.103,5141.112,N,00011.543,W,1,12,1.0,0.0,M,0.0,M,,*77
$GPGSA,A,3,01,02,03,04,05,06,07,08,09,10,11,12,1.0,1.0,1.0*30
$GPRMC,234058.103,A,5141.112,N,00011.543,W,058.3,096.5,291222,000.0,W*6F
$GPGGA,234059.103,5141.109,N,00011.517,W,1,12,1.0,0.0,M,0.0,M,,*7D
$GPGSA,A,3,01,02,03,04,05,06,07,08,09,10,11,12,1.0,1.0,1.0*30
$GPRMC,234059.103,A,5141.109,N,00011.517,W,058.3,096.5,291222,000.0,W*65
$GPGGA,234100.103,5141.106,N,00011.492,W,1,12,1.0,0.0,M,0.0,M,,*73
$GPGSA,A,3,01,02,03,04,05,06,07,08,09,10,11,12,1.0,1.0,1.0*30
$GPRMC,234100.103,A,5141.106,N,00011.492,W,058.3,096.5,291222,000.0,W*6B
$GPGGA,234101.103,5141.103,N,00011.466,W,1,12,1.0,0.0,M,0.0,M,,*7C
$GPGSA,A,3,01,02,03,04,05,06,07,08,09,10,11,12,1.0,1.0,1.0*30
$GPRMC,234101.103,A,5141.103,N,00011.466,W,058.3,096.5,291222,000.0,W*64
$GPGGA,234102.103,5141.100,N,00011.440,W,1,12,1.0,0.0,M,0.0,M,,*78
$GPGSA,A,3,01,02,03,04,05,06,07,08,09,10,11,12,1.0,1.0,1.0*30
$GPRMC,234102.103,A,5141.100,N,00011.440,W,058.3,096.5,291222,000.0,W*60
$GPGGA,234103.103,5141.097,N,00011.414,W,1,12,1.0,0.0,M,0.0,M,,*77
$GPGSA,A,3,01,02,03,04,05,06,07,08,09,10,11,12,1.0,1.0,1.0*30
$GPRMC,234103.103,A,5141.097,N,00011.414,W,058.3,096.5,291222,000.0,W*6F
$GPGGA,234104.103,5141.094,N,00011.389,W,1,12,1.0,0.0,M,0.0,M,,*70
$GPGSA,A,3,01,02,03,04,05,06,07,08,09,10,11,12,1.0,1.0,1.0*30
$GPRMC,234104.103,A,5141.094,N,00011.389,W,058.3,096.5,291222,000.0,W*68
$GPGGA,234105.103,5141.091,N,00011.363,W,1,12,1.0,0.0,M,0.0,M,,*70
$GPGSA,A,3,01,02,03,04,05,06,07,08,09,10,11,12,1.0,1.0,1.0*30
$GPRMC,234105.103,A,5141.091,N,00011.363,W,058.3,096.5,291222,000.0,W*68
$GPGGA,234106.103,5141.088,N,00011.337,W,1,12,1.0,0.0,M,0.0,M,,*7A
$GPGSA,A,3,01,02,03,04,05,06,07,08,09,10,11,12,1.0,1.0,1.0*30
$GPRMC,234106.103,A,5141.088,N,00011.337,W,058.3,096.5,291222,000.0,W*62
$GPGGA,234107.103,5141.086,N,00011.312,W,1,12,1.0,0.0,M,0.0,M,,*72
$GPGSA,A,3,01,02,03,04,05,06,07,08,09,10,11,12,1.0,1.0,1.0*30
$GPRMC,234107.103,A,5141.086,N,00011.312,W,058.3,096.5,291222,000.0,W*6A
$GPGGA,234108.103,5141.083,N,00011.286,W,1,12,1.0,0.0,M,0.0,M,,*74
$GPGSA,A,3,01,02,03,04,05,06,07,08,09,10,11,12,1.0,1.0,1.0*30
$GPRMC,234108.103,A,5141.083,N,00011.286,W,058.3,096.5,291222,000.0,W*6C
$GPGGA,234109.103,5141.080,N,00011.260,W,1,12,1.0,0.0,M,0.0,M,,*7E
$GPGSA,A,3,01,02,03,04,05,06,07,08,09,10,11,12,1.0,1.0,1.0*30
$GPRMC,234109.103,A,5141.080,N,00011.260,W,058.3,096.5,291222,000.0,W*66
$GPGGA,234110.103,5141.077,N,00011.235,W,1,12,1.0,0.0,M,0.0,M,,*7E
$GPGSA,A,3,01,02,03,04,05,06,07,08,09,10,11,12,1.0,1.0,1.0*30
$GPRMC,234110.103,A,5141.077,N,00011.235,W,058.3,096.5,291222,000.0,W*66
$GPGGA,234111.103,5141.074,N,00011.209,W,1,12,1.0,0.0,M,0.0,M,,*73
$GPGSA,A,3,01,02,03,04,05,06,07,08,09,10,11,12,1.0,1.0,1.0*30
$GPRMC,234111.103,A,5141.074,N,00011.209,W,058.3,096.5,291222,000.0,W*6B
$GPGGA,234112.103,5141.071,N,00011.183,W,1,12,1.0,0.0,M,0.0,M,,*74
$GPGSA,A,3,01,02,03,04,05,06,07,08,09,10,11,12,1.0,1.0,1.0*30
$GPRMC,234112.103,A,5141.071,N,00011.183,W,058.3,096.5,291222,000.0,W*6C
$GPGGA,234113.103,5141.068,N,00011.158,W,1,12,1.0,0.0,M,0.0,M,,*7B
$GPGSA,A,3,01,02,03,04,05,06,07,08,09,10,11,12,1.0,1.0,1.0*30
$GPRMC,234113.103,A,5141.068,N,00011.158,W,058.3,096.5,291222,000.0,W*63
$GPGGA,234114.103,5141.065,N,00011.132,W,1,12,1.0,0.0,M,0.0,M,,*7D
$GPGSA,A,3,01,02,03,04,05,06,07,08,09,10,11,12,1.0,1.0,1.0*30
$GPRMC,234114.103,A,5141.065,N,00011.132,W,058.3,096.5,291222,000.0,W*65
$GPGGA,234115.103,5141.062,N,00011.106,W,1,12,1.0,0.0,M,0.0,M,,*7C
$GPGSA,A,3,01,02,03,04,05,06,07,08,09,10,11,12,1.0,1.0,1.0*30
$GPRMC,234115.103,A,5141.062,N,00011.106,W,058.3,096.5,291222,000.0,W*64
$GPGGA,234116.103,5141.059,N,00011.081,W,1,12,1.0,0.0,M,0.0,M,,*79
$GPGSA,A,3,01,02,03,04,05,06,07,08,09,10,11,12,1.0,1.0,1.0*30
$GPRMC,234116.103,A,5141.059,N,00011.081,W,058.3,096.5,291222,000.0,W*61
$GPGGA,234117.103,5141.056,N,00011.055,W,1,12,1.0,0.0,M,0.0,M,,*7E
$GPGSA,A,3,01,02,03,04,05,06,07,08,09,10,11,12,1.0,1.0,1.0*30
$GPRMC,234117.103,A,5141.056,N,00011.055,W,058.3,096.5,291222,000.0,W*66
$GPGGA,234118.103,5141.053,N,00011.029,W,1,12,1.0,0.0,M,0.0,M,,*7F
$GPGSA,A,3,01,02,03,04,05,06,07,08,09,10,11,12,1.0,1.0,1.0*30
$GPRMC,234118.103,A,5141.053,N,00011.029,W,058.3,096.5,291222,000.0,W*67
$GPGGA,234119.103,5141.051,N,00011.004,W,1,12,1.0,0.0,M,0.0,M,,*73
$GPGSA,A,3,01,02,03,04,05,06,07,08,09,10,11,12,1.0,1.0,1.0*30
$GPRMC,234119.103,A,5141.051,N,00011.004,W,058.3,096.5,291222,000.0,W*6B
$GPGGA,234120.103,5141.048,N,00010.978,W,1,12,1.0,0.0,M,0.0,M,,*72
$GPGSA,A,3,01,02,03,04,05,06,07,08,09,10,11,12,1.0,1.0,1.0*30
$GPRMC,234120.103,A,5141.048,N,00010.978,W,058.3,096.5,291222,000.0,W*6A
$GPGGA,234121.103,5141.045,N,00010.952,W,1,12,1.0,0.0,M,0.0,M,,*76
$GPGSA,A,3,01,02,03,04,05,06,07,08,09,10,11,12,1.0,1.0,1.0*30
$GPRMC,234121.103,A,5141.045,N,00010.952,W,058.3,096.5,291222,000.0,W*6E
$GPGGA,234122.103,5141.042,N,00010.926,W,1,12,1.0,0.0,M,0.0,M,,*71
$GPGSA,A,3,01,02,03,04,05,06,07,08,09,10,11,12,1.0,1.0,1.0*30
$GPRMC,234122.103,A,5141.042,N,00010.926,W,058.3,096.5,291222,000.0,W*69
$GPGGA,234123.103,5141.039,N,00010.901,W,1,12,1.0,0.0,M,0.0,M,,*79
$GPGSA,A,3,01,02,03,04,05,06,07,08,09,10,11,12,1.0,1.0,1.0*30
$GPRMC,234123.103,A,5141.039,N,00010.901,W,058.3,096.5,291222,000.0,W*61
$GPGGA,234124.103,5141.036,N,00010.875,W,1,12,1.0,0.0,M,0.0,M,,*73
$GPGSA,A,3,01,02,03,04,05,06,07,08,09,10,11,12,1.0,1.0,1.0*30
$GPRMC,234124.103,A,5141.036,N,00010.875,W,058.3,096.5,291222,000.0,W*6B
$GPGGA,234125.103,5141.033,N,00010.849,W,1,12,1.0,0.0,M,0.0,M,,*78
$GPGSA,A,3,01,02,03,04,05,06,07,08,09,10,11,12,1.0,1.0,1.0*30
$GPRMC,234125.103,A,5141.033,N,00010.849,W,058.3,078.1,291222,000.0,W*64
$GPGGA,234126.103,5141.038,N,00010.825,W,1,12,1.0,0.0,M,0.0,M,,*7A
$GPGSA,A,3,01,02,03,04,05,06,07,08,09,10,11,12,1.0,1.0,1.0*30
$GPRMC,234126.103,A,5141.038,N,00010.825,W,058.3,078.1,291222,000.0,W*66
$GPGGA,234127.103,5141.043,N,00010.800,W,1,12,1.0,0.0,M,0.0,M,,*70
$GPGSA,A,3,01,02,03,04,05,06,07,08,09,10,11,12,1.0,1.0,1.0*30
$GPRMC,234127.103,A,5141.043,N,00010.800,W,058.3,078.1,291222,000.0,W*6C
$GPGGA,234128.103,5141.049,N,00010.775,W,1,12,1.0,0.0,M,0.0,M,,*78
$GPGSA,A,3,01,02,03,04,05,06,07,08,09,10,11,12,1.0,1.0,1.0*30
$GPRMC,234128.103,A,5141.049,N,00010.775,W,058.3,078.1,291222,000.0,W*64
$GPGGA,234129.103,5141.054,N,00010.750,W,1,12,1.0,0.0,M,0.0,M,,*72
$GPGSA,A,3,01,02,03,04,05,06,07,08,09,10,11,12,1.0,1.0,1.0*30
$GPRMC,234129.103,A,5141.054,N,00010.750,W,058.3,078.1,291222,000.0,W*6E
$GPGGA,234130.103,5141.059,N,00010.726,W,1,12,1.0,0.0,M,0.0,M,,*76
$GPGSA,A,3,01,02,03,04,05,06,07,08,09,10,11,12,1.0,1.0,1.0*30
$GPRMC,234130.103,A,5141.059,N,00010.726,W,058.3,078.1,291222,000.0,W*6A
$GPGGA,234131.103,5141.064,N,00010.701,W,1,12,1.0,0.0,M,0.0,M,,*7C
$GPGSA,A,3,01,02,03,04,05,06,07,08,09,10,11,12,1.0,1.0,1.0*30
$GPRMC,234131.103,A,5141.064,N,00010.701,W,058.3,078.1,291222,000.0,W*60
$GPGGA,234132.103,5141.069,N,00010.676,W,1,12,1.0,0.0,M,0.0,M,,*73
$GPGSA,A,3,01,02,03,04,05,06,07,08,09,10,11,12,1.0,1.0,1.0*30
$GPRMC,234132.103,A,5141.069,N,00010.676,W,058.3,078.1,291222,000.0,W*6F
$GPGGA,234133.103,5141.074,N,00010.652,W,1,12,1.0,0.0,M,0.0,M,,*78
$GPGSA,A,3,01,02,03,04,05,06,07,08,09,10,11,12,1.0,1.0,1.0*30
$GPRMC,234133.103,A,5141.074,N,00010.652,W,058.3,078.1,291222,000.0,W*64
$GPGGA,234134.103,5141.080,N,00010.627,W,1,12,1.0,0.0,M,0.0,M,,*76
$GPGSA,A,3,01,02,03,04,05,06,07,08,09,10,11,12,1.0,1.0,1.0*30
$GPRMC,234134.103,A,5141.080,N,00010.627,W,058.3,078.1,291222,000.0,W*6A
$GPGGA,234135.103,5141.085,N,00010.602,W,1,12,1.0,0.0,M,0.0,M,,*75
$GPGSA,A,3,01,02,03,04,05,06,07,08,09,10,11,12,1.0,1.0,1.0*30
$GPRMC,234135.103,A,5141.085,N,00010.602,W,058.3,078.1,291222,000.0,W*69
$GPGGA,234136.103,5141.090,N,00010.577,W,1,12,1.0,0.0,M,0.0,M,,*73
$GPGSA,A,3,01,02,03,04,05,06,07,08,09,10,11,12,1.0,1.0,1.0*30
$GPRMC,234136.103,A,5141.090,N,00010.577,W,058.3,078.1,291222,000.0,W*6F
$GPGGA,234137.103,5141.095,N,00010.553,W,1,12,1.0,0.0,M,0.0,M,,*71
$GPGSA,A,3,01,02,03,04,05,06,07,08,09,10,11,12,1.0,1.0,1.0*30
$GPRMC,234137.103,A,5141.095,N,00010.553,W,058.3,078.1,291222,000.0,W*6D
$GPGGA,234138.103,5141.100,N,00010.528,W,1,12,1.0,0.0,M,0.0,M,,*7F
$GPGSA,A,3,01,02,03,04,05,06,07,08,09,10,11,12,1.0,1.0,1.0*30
$GPRMC,234138.103,A,5141.100,N,00010.528,W,058.3,078.1,291222,000.0,W*63
$GPGGA,234139.103,5141.106,N,00010.503,W,1,12,1.0,0.0,M,0.0,M,,*71
$GPGSA,A,3,01,02,03,04,05,06,07,08,09,10,11,12,1.0,1.0,1.0*30
$GPRMC,234139.103,A,5141.106,N,00010.503,W,058.3,078.1,291222,000.0,W*6D
$GPGGA,234140.103,5141.111,N,00010.478,W,1,12,1.0,0.0,M,0.0,M,,*74
$GPGSA,A,3,01,02,03,04,05,06,07,08,09,10,11,12,1.0,1.0,1.0*30
$GPRMC,234140.103,A,5141.111,N,00010.478,W,058.3,078.1,291222,000.0,W*68
$GPGGA,234141.103,5141.116,N,00010.454,W,1,12,1.0,0.0,M,0.0,M,,*7C
$GPGSA,A,3,01,02,03,04,05,06,07,08,09,10,11,12,1.0,1.0,1.0*30
$GPRMC,234141.103,A,5141.116,N,00010.454,W,058.3,078.1,291222,000.0,W*60
$GPGGA,234142.103,5141.121,N,00010.429,W,1,12,1.0,0.0,M,0.0,M,,*71
$GPGSA,A,3,01,02,03,04,05,06,07,08,09,10,11,12,1.0,1.0,1.0*30
$GPRMC,234142.103,A,5141.121,N,00010.429,W,058.3,078.1,291222,000.0,W*6D
$GPGGA,234143.103,5141.126,N,00010.404,W,1,12,1.0,0.0,M,0.0,M,,*78
$GPGSA,A,3,01,02,03,04,05,06,07,08,09,10,11,12,1.0,1.0,1.0*30
$GPRMC,234143.103,A,5141.126,N,00010.404,W,058.3,078.1,291222,000.0,W*64
$GPGGA,234144.103,5141.131,N,00010.379,W,1,12,1.0,0.0,M,0.0,M,,*74
$GPGSA,A,3,01,02,03,04,05,06,07,08,09,10,11,12,1.0,1.0,1.0*30
$GPRMC,234144.103,A,5141.131,N,00010.379,W,058.3,078.1,291222,000.0,W*68
$GPGGA,234145.103,5141.137,N,00010.355,W,1,12,1.0,0.0,M,0.0,M,,*7D
$GPGSA,A,3,01,02,03,04,05,06,07,08,09,10,11,12,1.0,1.0,1.0*30
$GPRMC,234145.103,A,5141.137,N,00010.355,W,058.3,078.1,291222,000.0,W*61
$GPGGA,234146.103,5141.142,N,00010.330,W,1,12,1.0,0.0,M,0.0,M,,*7F
$GPGSA,A,3,01,02,03,04,05,06,07,08,09,10,11,12,1.0,1.0,1.0*30
$GPRMC,234146.103,A,5141.142,N,00010.330,W,058.3,078.1,291222,000.0,W*63
$GPGGA,234147.103,5141.147,N,00010.305,W,1,12,1.0,0.0,M,0.0,M,,*7D
$GPGSA,A,3,01,02,03,04,05,06,07,08,09,10,11,12,1.0,1.0,1.0*30
$GPRMC,234147.103,A,5141.147,N,00010.305,W,058.3,078.1,291222,000.0,W*61
$GPGGA,234148.103,5141.152,N,00010.280,W,1,12,1.0,0.0,M,0.0,M,,*7A
$GPGSA,A,3,01,02,03,04,05,06,07,08,09,10,11,12,1.0,1.0,1.0*30
$GPRMC,234148.103,A,5141.152,N,00010.280,W,058.3,076.2,291222,000.0,W*6B
$GPGGA,234149.103,5141.158,N,00010.256,W,1,12,1.0,0.0,M,0.0,M,,*7A
$GPGSA,A,3,01,02,03,04,05,06,07,08,09,10,11,12,1.0,1.0,1.0*30
$GPRMC,234149.103,A,5141.158,N,00010.256,W,058.3,076.2,291222,000.0,W*6B
$GPGGA,234150.103,5141.164,N,00010.232,W,1,12,1.0,0.0,M,0.0,M,,*7F
$GPGSA,A,3,01,02,03,04,05,06,07,08,09,10,11,12,1.0,1.0,1.0*30
$GPRMC,234150.103,A,5141.164,N,00010.232,W,058.3,076.2,291222,000.0,W*6E
$GPGGA,234151.103,5141.170,N,00010.208,W,1,12,1.0,0.0,M,0.0,M,,*72
$GPGSA,A,3,01,02,03,04,05,06,07,08,09,10,11,12,1.0,1.0,1.0*30
$GPRMC,234151.103,A,5141.170,N,00010.208,W,058.3,076.2,291222,000.0,W*63
$GPGGA,234152.103,5141.176,N,00010.183,W,1,12,1.0,0.0,M,0.0,M,,*77
$GPGSA,A,3,01,02,03,04,05,06,07,08,09,10,11,12,1.0,1.0,1.0*30
$GPRMC,234152.103,A,5141.176,N,00010.183,W,058.3,076.2,291222,000.0,W*66
$GPGGA,234153.103,5141.182,N,00010.159,W,1,12,1.0,0.0,M,0.0,M,,*7A
$GPGSA,A,3,01,02,03,04,05,06,07,08,09,10,11,12,1.0,1.0,1.0*30
$GPRMC,234153.103,A,5141.182,N,00010.159,W,058.3,076.2,291222,000.0,W*6B
$GPGGA,234154.103,5141.188,N,00010.135,W,1,12,1.0,0.0,M,0.0,M,,*7D
$GPGSA,A,3,01,02,03,04,05,06,07,08,09,10,11,12,1.0,1.0,1.0*30
$GPRMC,234154.103,A,5141.188,N,00010.135,W,058.3,076.2,291222,000.0,W*6C
$GPGGA,234155.103,5141.194,N,00010.110,W,1,12,1.0,0.0,M,0.0,M,,*76
$GPGSA,A,3,01,02,03,04,05,06,07,08,09,10,11,12,1.0,1.0,1.0*30
$GPRMC,234155.103,A,5141.194,N,00010.110,W,058.3,076.2,291222,000.0,W*67
